School,SchoolOrHome,Type,Latitude,Longitude
Lake Erie International High School,School,Public,41.483799,-81.7683914
Foundation Academy,School,Public,40.7803792,-82.5528218
"Columbus Humanities, Arts and Technology Academy",School,Public,40.0605336,-82.9831519
Toledo SMART Elementary School,School,Public,0,0
Berwyn East Academy,School,Public,39.9181417,-82.8804596
Focus Learning Academy of Southeastern Columbus,School,Public,39.9158163,-82.876975
Hope Learning Academy of Toledo,School,Public,41.6829101,-83.6079435
Electronic Classroom Of Tomorrow,School,Public,0,0
Constellation Schools: Old Brooklyn Community Elementary,School,Public,41.433941,-81.7077967
Middletown Preparatory & Fitness Academy,School,Public,39.5157075,-84.4100787
A+ Arts Academy,School,Public,39.9632928,-82.962526
Columbus Arts & Technology Academy,School,Public,39.9275986,-82.8847551
Columbus Preparatory Academy,School,Public,39.9850413,-83.0936529
Lakeshore Intergenerational School,School,Public,41.5842156,-81.5539544
Orion Academy,School,Public,39.1264533,-84.5580071
Towpath Trail High School,School,Public,41.0895024,-81.5264321
Constellation Schools: Stockyard Community Middle,School,Public,41.4674609,-81.7307281
Constellation Schools: Parma Community,School,Public,41.3788836,-81.7375923
Eagle Academy,School,Public,0,0
Constellation Schools: Collinwood Village Academy,School,Public,0,0
Aurora Academy,School,Public,0,0
Greater Ohio Virtual School,School,Public,39.4071689,-84.2112792
Cincinnati Technology Academy,School,Public,39.1143455,-84.5758231
Summit Academy Transition High School-Cincinnati,School,Public,39.1976462,-84.5443292
Par Excellence Academy,School,Public,40.0609248,-82.4521726
Citizens Leadership Academy,School,Public,41.5090304,-81.619349
Ohio College Preparatory School,School,Public,41.4137528,-81.5314434
Summit Academy School - Lorain,School,Public,41.4718556,-82.1624822
Midnimo Cross Cultural Community School,School,Public,40.0144665,-82.9685443
Lakewood City Academy,School,Public,0,0
Akron Preparatory School,School,Public,41.0657838,-81.4842587
Canton College Preparatory School,School,Public,40.7992305,-81.3766356
Summit Academy Community School for Alternative Learn-Canton,School,Public,40.7810349,-81.3832884
Life Skills Ctr Of Youngstown,School,Public,0,0
Alternative Education Academy,School,Public,41.6592142,-83.5469095
Hamilton Cnty Math & Science,School,Public,39.2771244,-84.5709107
East Preparatory Academy,School,Public,41.5147462,-81.6609237
Auglaize County Educational Academy,School,Public,40.729134,-84.088078
The Academy for Urban Scholars,School,Public,39.9679698,-82.9527184
Focus North High School,School,Public,40.0645425,-82.9949808
Dayton SMART Elementary School,School,Public,39.7533491,-84.1765458
Graham Elementary and Middle School,School,Public,40.0016762,-83.0044532
Horizon Science Academy Toledo,School,Public,41.6927905,-83.6066648
Horizon Science Academy Dayton Downtown,School,Public,39.7629094,-84.1542919
Townsend North Community School,School,Public,41.399314,-82.802072
STEAM Academy of Dayton,School,Public,0,0
Citizens Academy Southeast,School,Public,41.4456554,-81.5706538
Wildwood Environmental Academy,School,Public,41.6117359,-83.687112
Ashland County Community Academy,School,Public,40.8733094,-82.3132875
STEAM Academy of Warrensville Heights,School,Public,41.4320052,-81.4988596
Stepstone Academy,School,Public,41.4997304,-81.6636481
Marshall High School,School,Public,39.4991005,-84.3463586
River Gate High School,School,Public,41.2346989,-80.8127338
International Acad Of Columbus,School,Public,40.0878843,-82.9527604
Schnee Learning Center,School,Public,41.1372538,-81.4542055
The Capella Institute,School,Public,0,0
Horizon Science Academy-Denison Middle School,School,Public,41.4517134,-81.6930403
New Day Academy Boarding & Day School,School,Public,41.5532297,-81.56119
Apex Academy,School,Public,41.5416253,-81.5662838
Village Preparatory School:: Woodland Hills Campus,School,Public,41.4631435,-81.6222603
Oakstone Community School,School,Public,40.0872973,-82.9516261
"Edge Academy, The",School,Public,41.0837429,-81.5067925
Focus Learning Academy of Northern Columbus,School,Public,40.0874007,-82.9683859
Zenith Academy,School,Public,40.062163,-82.9667465
"Graham School, The",School,Public,40.044994,-82.999248
Near West Intergenerational School,School,Public,41.4851402,-81.7139214
Summit Academy Middle School - Columbus,School,Public,39.91443,-82.958219
Entrepreneurship Preparatory School - Woodland Hills Campus,School,Public,41.4631435,-81.6222603
STEAM Academy of Warren,School,Public,41.2385643,-80.8119118
Youthbuild Columbus Community,School,Public,39.9885761,-82.9884164
Foxfire Intermediate School,School,Public,39.8957947,-82.0476945
Dohn Community,School,Public,39.1266763,-84.4979244
Richard Allen Academy II,School,Public,0,0
Heir Force Community School,School,Public,40.7512421,-84.1061537
Summit Academy Transition High School-Columbus,School,Public,39.91443,-82.958219
Regent High School,School,Public,41.4654219,-81.6500597
AchievePoint Career Academy - Cincinnati,School,Public,39.1303484,-84.6131203
Summit Academy Alternative LearnersWarren Middle & Secondary,School,Public,41.248531,-80.8412929
Mason Run High School,School,Public,39.9521483,-82.9160529
Steel Academy,School,Public,41.1069315,-81.4770292
Old Brook High School,School,Public,41.4249407,-81.7205562
Toledo Preparatory and Fitness Academy,School,Public,41.6371796,-83.6136404
Mound Street IT Careers Academy,School,Public,0,0
Arts & College Preparatory Academy,School,Public,39.9340289,-82.8743675
Columbus Preparatory and Fitness Academy,School,Public,39.9291937,-83.0892325
Summit Academy Community School-Columbus,School,Public,39.91443,-82.958219
Mt. Healthy Preparatory and Fitness Academy,School,Public,39.2329549,-84.54993
Newbridge Math & Reading Preparatory Academy,School,Public,0,0
Summit Academy Community School - Dayton,School,Public,39.8049024,-84.1987403
Summit Academy Secondary - Akron,School,Public,41.0965385,-81.5701505
Summit Academy Community School Alternative Learners -Xenia,School,Public,39.6751004,-83.9592943
Fairborn Digital Academy,School,Public,39.832228,-83.9869609
Northpointe Academy,School,Public,0,0
Zanesville Community School,School,Public,39.9240447,-82.0048625
Beacon Academy,School,Public,40.7853842,-81.3936382
Constellation Schools: Westside Community School of the Arts,School,Public,41.4518114,-81.7633127
Horizon Science Academy Lorain,School,Public,41.438197,-82.1766318
Whitehall Preparatory and Fitness Academy,School,Public,39.9466566,-82.9031292
Horizon Science Academy Dayton High School,School,Public,39.8116038,-84.224422
Bennett Venture Academy,School,Public,41.7096209,-83.5552339
Horizon Science Academy Youngstown,School,Public,41.0647621,-80.6560423
Lincoln Preparatory Academy,School,Public,0,0
The Autism Academy Of Learning,School,Public,41.6364457,-83.6227875
DECA PREP,School,Public,39.7740678,-84.2031065
Cesar Chavez College Preparatory School,School,Public,40.012389,-82.944972
"Ohio Connections Academy, Inc",School,Public,41.5128956,-81.6654452
Ohio Virtual Academy,School,Public,41.5870754,-83.684178
Wings Academy 1,School,Public,41.4783443,-81.6111266
Northeast Ohio College Preparatory School,School,Public,41.4809663,-81.6866005
"Albert Einstein Academy for Letters, Arts and Sciences-Ohio",School,Public,41.4373765,-81.949449
South Columbus Preparatory Academy,School,Public,39.900718,-82.962531
Hope Academy Northwest Campus,School,Public,41.4821801,-81.7671663
Road to Success Academy,School,Public,40.0358115,-82.9646716
Constellation Schools: Westpark Community Elementary,School,Public,41.4515782,-81.8121372
Lighthouse Community Sch Inc,School,Public,39.162775,-84.3904381
Polly Fox Academy Community School,School,Public,0,0
King Academy Community School,School,Public,39.113376,-84.5202937
Wings Academy 2,School,Public,0,0
Central High School,School,Public,39.9577849,-83.0228572
Emerson Academy,School,Public,39.7517066,-84.1809043
Summit Academy Transition High School Dayton,School,Public,39.8161696,-84.2327945
George V. Voinovich Reclamation Academy,School,Public,0,0
Frederick Douglass Reclamation Academy,School,Public,41.4680682,-81.7071562
Summit Academy-Youngstown,School,Public,41.1058595,-80.7009095
Capital High School,School,Public,39.9450884,-83.0360216
Rise & Shine Academy,School,Public,41.6819264,-83.5432047
Patriot Preparatory Academy,School,Public,39.9492517,-82.8641465
University of Cleveland Preparatory School,School,Public,41.5057799,-81.6588129
Cornerstone Academy Community School,School,Public,40.1135495,-82.8270499
Bridge Gate Community School,School,Public,39.9429081,-83.1068793
Summit Academy Community School Alternative Learners-Lorain,School,Public,41.4364517,-82.1204417
Middlebury Academy,School,Public,41.0728837,-81.4878712
Mound Street Military Careers Academy,School,Public,39.7508199,-84.2086362
Lorain K-12 Digital Academy,School,Public,0,0
Springfield Preparatory and Fitness Academy,School,Public,39.9046824,-83.7950013
Euclid Preparatory School,School,Public,41.5759101,-81.521319
Northland Preparatory and Fitness Academy,School,Public,40.0594594,-82.9682599
Summit Academy Community School - Painesville,School,Public,41.7306638,-81.2438391
Imagine Woodbury Academy,School,Public,0,0
East Branch Preparatory AcademydbaWright Preparatory Academy,School,Public,40.8127973,-81.3430326
Youngstown Academy of Excellence,School,Public,41.0914684,-80.6224149
Urban Early College Network,School,Public,39.8000154,-84.2402276
Richard Allen Academy III,School,Public,0,0
Horizon Science Academy Columbus,School,Public,40.0621578,-82.9910615
Life Skills Center Of Toledo,School,Public,41.6592142,-83.5469095
Buckeye Preparatory Academy,School,Public,0,0
Greater Summit County Early Learning Center,School,Public,41.0163939,-81.4627437
"Intergenerational School, The",School,Public,41.4847552,-81.6057245
Pleasant Community Digital,School,Public,0,0
Findlay Digital Academy,School,Public,41.0399658,-83.6691676
Quaker Digital Academy,School,Public,40.4801277,-81.4412891
Horizon Science Academy Elementary School,School,Public,40.0585636,-82.9438328
Stambaugh Charter Academy,School,Public,41.1160104,-80.6967071
L. Hollingworth School for Talented and Gifted,School,Public,41.6384228,-83.5304239
Summit Academy Akron Middle School,School,Public,41.0965385,-81.5701505
Horizon Science Academy-Cleveland Middle School,School,Public,41.5304953,-81.6477455
Mahoning County High School,School,Public,41.113476,-80.5948049
Phoenix Academy Community School,School,Public,0,0
Interactive Media & Construction (IMAC),School,Public,40.7649324,-82.552209
KIPP Columbus,School,Public,40.0290804,-82.9394727
Kids Care Elementary,School,Public,40.0378858,-82.9458705
Glass City Academy,School,Public,41.6521528,-83.5427468
Orchard Park Academy,School,Public,41.4612753,-81.7955303
Great Western Academy,School,Public,39.9604073,-83.0927265
Washington Park Community School,School,Public,41.4492224,-81.6585892
Renaissance Academy,School,Public,39.9422475,-82.8872361
Hope Academy Northcoast,School,Public,41.4415513,-81.6397684
Hardin Community School,School,Public,40.6431801,-83.6036602
Tomorrow Center,School,Public,40.4928942,-82.8795604
Pathway School of Discovery,School,Public,39.7955842,-84.1564216
North Central Academy,School,Public,41.111992,-83.2133717
Toledo School For The Arts,School,Public,41.6565351,-83.5434129
Alliance Academy of Cincinnati,School,Public,39.1421025,-84.470164
Summit Academy Secondary School - Middletown,School,Public,39.5112456,-84.3446536
Franklinton Preparatory Academy,School,Public,39.9594463,-83.0342076
T.C.P. World Academy,School,Public,39.1809913,-84.4268836
Colonial Prep Academy,School,Public,0,0
Mound Street Health Careers Academy,School,Public,0,0
Utica Shale Academy of Ohio,School,Public,40.6364969,-80.7821136
Village Preparatory School Willard,School,Public,41.4711522,-81.7479911
Life Skills Ctr Of Cincinnati,School,Public,39.1279024,-84.4887099
Stark College and Career High School,School,Public,40.7853842,-81.3936382
"Massillon Digital Academy, Inc",School,Public,0,0
Miamisburg Secondary Academy,School,Public,0,0
Southside Academy,School,Public,41.0865887,-80.660133
Cleveland Arts and Social Sciences Academy,School,Public,41.484213,-81.6111349
Central Academy of Ohio,School,Public,41.6698395,-83.6093158
Global Village Academy,School,Public,41.4066227,-81.710998
Canton Harbor High School,School,Public,40.816383,-81.3395547
Hope Academy for Autism,School,Public,41.2242013,-80.7997973
Chapelside Cleveland Academy,School,Public,41.4540418,-81.5907158
Miami Valley Academies,School,Public,39.676635,-84.219992
Invictus High School,School,Public,41.5022083,-81.6657904
Cleveland Academy for Scholarship Technology and Leadership,School,Public,41.5019349,-81.6578874
Charles School at Ohio Dominican University,School,Public,39.9946752,-82.9488954
Bella Academy of Excellence,School,Public,41.5809345,-81.5449872
University Academy,School,Public,41.0691684,-81.4899521
Noble Academy-Cleveland,School,Public,41.5768406,-81.5397885
Imagine Hill Avenue,School,Public,41.638204,-83.687051
Winton Preparatory Academy,School,Public,39.176955,-84.517373
Lincoln Park Academy,School,Public,41.467426,-81.7126849
SunBridge Schools,School,Public,41.6594084,-83.7030851
Main Preparatory Academy,School,Public,41.0535048,-81.5106904
Ohio Construction Academy,School,Public,40.008502,-82.9178395
Riverside Academy,School,Public,39.0863047,-84.5780435
Constellation Schools: Puritas Community Elementary,School,Public,41.4347608,-81.8212776
Life Skills Of Northeast Ohio,School,Public,41.4284698,-81.5255378
Millennium Community School,School,Public,39.9207063,-82.9065344
Buckeye On-Line School for Success,School,Public,40.6191746,-80.5787786
Early College Academy,School,Public,39.9860785,-82.9966032
Citizens Leadership Academy East,School,Public,41.53647,-81.5965785
Summit Academy Secondary - Canton,School,Public,40.8238173,-81.3831166
Summit Academy - Toledo,School,Public,41.6429277,-83.5535298
Rushmore Academy,School,Public,0,0
Life Skills High School of Cleveland,School,Public,0,0
North Dayton School Of Science & Discovery,School,Public,39.8152904,-84.2518329
Summit Academy Community School-Parma,School,Public,41.4034511,-81.7695465
Goal Digital Academy,School,Public,40.7670087,-82.544454
Summit Academy Secondary - Youngstown,School,Public,41.0712115,-80.6346272
Constellation Schools: Eastside Arts Academy,School,Public,41.4522422,-81.6425933
Summit Academy Community School-Warren,School,Public,41.2200298,-80.7866424
Liberty High School,School,Public,39.7661678,-84.1753296
Summit Academy Community School - Cincinnati,School,Public,39.1857528,-84.4678804
Akros Middle School,School,Public,41.0833523,-81.508061
Rittman Academy,School,Public,40.97583,-81.798006
Dayton Leadership Academies-Dayton View Campus,School,Public,39.7615342,-84.2183944
Coshocton Opportunity School,School,Public,40.2582311,-81.8456308
Horizon Science Academy-Cincinnati,School,Public,39.1774771,-84.4809882
"Dayton Early College Academy, Inc",School,Public,39.7389135,-84.1817273
Imagine Akron Academy,School,Public,41.0493082,-81.5779794
Zenith Academy West,School,Public,39.9553523,-83.0911901
Horizon Science Academy-Dayton,School,Public,39.8125502,-84.22373
Phoenix Community Learning Ctr,School,Public,39.1483329,-84.4955826
TRECA Digital Academy,School,Public,40.5714826,-83.1248566
Clark Preparatory Academy,School,Public,0,0
Youngstown Community School,School,Public,41.0904546,-80.6578845
Noble Academy-Columbus,School,Public,40.0626275,-83.0550571
Star Academy of Toledo,School,Public,0,0
Flex High School,School,Public,39.9578127,-83.0157019
South Scioto Academy,School,Public,39.926294,-82.937899
Life Skills Center of Columbus North,School,Public,40.0876954,-82.9673359
Stonebrook Montessori,School,Public,41.5288674,-81.6259848
Dayton Leadership Academies-Early Learning Academy,School,Public,0,0
Mahoning Unlimited Classroom,School,Public,41.0211588,-80.6587026
Dayton Business Technology High School,School,Public,39.7611151,-84.1986039
East Academy,School,Public,41.5546378,-81.5682546
Constellation Schools: Lorain Community Elementary,School,Public,41.4664022,-82.1833445
Constellation Schools: Puritas Community Middle,School,Public,41.4347608,-81.8212776
Discovery Academy,School,Public,41.6787319,-83.609239
iLEAD Spring Meadows,School,Public,41.61188,-83.7256609
Richard Allen Preparatory,School,Public,39.7640504,-84.2075817
Sciotoville,School,Public,38.7585589,-82.8886315
West Park Academy,School,Public,41.4264978,-81.7786594
Global Ambassadors Language Academy,School,Public,41.4574915,-81.7842302
Autism Model School,School,Public,41.7182659,-83.6170531
Harvard Avenue Performance Academy,School,Public,41.4480618,-81.5984562
Groveport Community School,School,Public,39.8777741,-82.8854279
Horizon Science Academy Columbus Middle School,School,Public,40.060525,-82.956289
Life Skills Center of Elyria,School,Public,41.4013087,-82.1067366
Eagle Learning Center,School,Public,41.6375317,-83.4844413
Cliff Park High School,School,Public,39.9344258,-83.806381
Constellation Schools: Stockyard Community Elementary,School,Public,41.4674609,-81.7307281
Franklin Local Community School,School,Public,0,0
Foxfire High School,School,Public,39.8957947,-82.0476945
Columbus Collegiate Academy - West,School,Public,39.9520993,-83.0342076
Beacon Hill Academy,School,Public,40.671824,-81.702346
Imagine Leadership Academy,School,Public,41.0493082,-81.5779794
Westside Academy,School,Public,39.9356954,-83.1122293
Southwest Ohio Preparatory School,School,Public,39.1952403,-84.5704435
A+ Children's Academy,School,Public,39.8823721,-82.996981
Zenith Academy East,School,Public,39.9285849,-82.8813067
Richard Allen Academy,School,Public,39.3835842,-84.5439495
Akron Digital Academy,School,Public,0,0
Village Preparatory School,School,Public,41.5136256,-81.6665337
Bridges Community Academy,School,Public,41.0979128,-83.1681756
Life Skills Center of North Akron,School,Public,41.102851,-81.4670554
Monroe Preparatory Academy,School,Public,41.4513668,-82.703772
United Preparatory Academy East,School,Public,39.9568865,-82.9595235
Constellation Schools: Westpark Community Middle,School,Public,41.4515782,-81.8121372
Broadway Academy,School,Public,41.4656044,-81.6522654
Menlo Park Academy,School,Public,41.4731999,-81.7207252
Life Skills Center of Dayton,School,Public,39.7788143,-84.2056559
Everest High School,School,Public,39.9529277,-82.7971456
United Preparatory Academy,School,Public,39.9578735,-83.0167091
Constellation Schools: Madison Community Elementary,School,Public,41.4768235,-81.7480001
Achieve Career Preparatory Academy,School,Public,41.6905303,-83.5656969
Horizon Science Acad Cleveland,School,Public,41.5309122,-81.6486503
Cincinnati College Preparatory Academy,School,Public,39.1109566,-84.5283626
Green Inspiration Academy,School,Public,41.444329,-81.5276298
West Preparatory Academy,School,Public,41.4247872,-81.7816285
Sullivant Avenue Community School,School,Public,39.942051,-83.0905281
Harrisburg Pike Community School,School,Public,39.9437179,-83.036098
Lorain Preparatory Academy,School,Public,41.4322517,-82.2018087
Madison Avenue School of Arts,School,Public,41.6558715,-83.5454109
Horizon Science Academy Denison Elementary School,School,Public,0,0
Westwood Preparatory Academy,School,Public,39.9577849,-83.0228572
Clay Avenue Community School,School,Public,41.6827213,-83.5228873
Klepinger Community School,School,Public,39.8003233,-84.2442611
Mount Auburn International Academy,School,Public,0,0
West Central Learning Academy II,School,Public,40.7430893,-84.1110621
Liberty Preparatory School,School,Public,40.8651697,-81.8601273
City Day Community School,School,Public,39.7549016,-84.1898719
Pinnacle Academy,School,Public,41.5907814,-81.5274736
Performance Academy Eastland,School,Public,39.9298813,-82.8770591
Cleveland College Preparatory School,School,Public,41.455525,-81.656059
Insight School of Ohio,School,Public,0,0
Winterfield Venture Academy,School,Public,41.6343463,-83.6437376
Columbus Performance Academy,School,Public,39.9813337,-82.9960155
Focus Learning Academy of Southwest Columbus,School,Public,39.9325,-82.9906836
Cincinnati Learning Schools,School,Public,0,0
REACH Academy,School,Public,0,0
Trotwood Preparatory & Fitness Academy,School,Public,39.8179138,-84.2952701
STEAM Academy of Akron,School,Public,41.0355412,-81.4967583
T2 Honors Academy,School,Public,41.4312823,-81.5510726
Academy of Educational Excellence,School,Public,41.6474547,-83.5949156
Constellation Schools: Elyria Community,School,Public,41.3818562,-82.0781212
Cleveland Entrepreneurship Preparatory School,School,Public,0,0
Madisonville SMART Elementary,School,Public,0,0
Brookwood Academy,School,Public,0,0
Cleveland Preparatory Academy,School,Public,41.425829,-81.720407
"Maritime Academy of Toledo, The",School,Public,41.6551341,-83.5278216
Columbus Collegiate Academy,School,Public,39.9568865,-82.9595235
The Haley School,School,Public,0,0
Constellation Schools: Lorain Community Middle,School,Public,41.4664022,-82.1833445
Constellation Schools: Old Brooklyn Community Middle,School,Public,41.433941,-81.7077967
Summit Academy Akron Elementary School,School,Public,41.048857,-81.4396901
Promise Academy,School,Public,41.5039501,-81.6843548
Citizens Academy East,School,Public,41.53647,-81.5965785
Imagine Columbus Primary School,School,Public,40.0629239,-82.9662439
Newark Digital Academy,School,Public,0,0
Lakeland Academy Community School,School,Public,40.2105092,-81.2667244
Academy for Urban Scholars Youngstown,School,Public,41.064848,-80.6610432
East Bridge Academy of Excellence,School,Public,39.9349024,-82.8335162
Columbus Bilingual Academy-North,School,Public,40.0617349,-82.9639913
Lake Erie College Preparatory School,School,Public,41.5521493,-81.5813206
Educational Academy for Boys & Girls,School,Public,39.9548177,-83.0582028
Summit Acdy Comm Schl for Alternative Learners of Middletown,School,Public,39.5102568,-84.3442017
The Richland School of Academic Arts,School,Public,40.7609403,-82.5683229
Citizens Academy,School,Public,41.5239339,-81.6181716
Horizon Science Academy-Springfield,School,Public,41.628571,-83.6656778
Life Skills Center of Columbus Southeast,School,Public,39.9255334,-82.878447
Anton Grdina ,School,Public,41.4782583,-81.6389551
Crosby Elementary School,School,Public,39.2766386,-84.716958
Pymatuning Valley Primary Elementary School,School,Public,41.6094396,-80.5854316
Buckeye Valley East Elementary School,School,Public,40.4094648,-82.9471776
Avondale Elementary School,School,Public,39.9562113,-83.0255549
Barnesville High School,School,Public,39.9868434,-81.1571965
Bear Elementary School,School,Public,39.634013,-84.30273
Black River High School,School,Public,41.0567498,-82.1734877
Caldwell Elementary School,School,Public,39.7401764,-81.5245848
Thurgood Marshall High School,School,Public,39.7628246,-84.261184
Dorothy E Lewis Elementary School,School,Public,41.410958,-81.449752
East High School ,School,Public,39.9671025,-82.9608814
Emerson Primary School,School,Public,40.2795769,-84.1696847
Firestone High School,School,Public,41.1189134,-81.5646986
Benjamin Logan Elementary School,School,Public,40.4100017,-83.6531938
Boardman High School,School,Public,41.0111623,-80.6684737
Como Elementary School,School,Public,40.0258513,-82.9926149
Fairfax Elementary School,School,Public,41.4926963,-81.5658982
Ada Elementary School,School,Public,40.7747376,-83.8294826
Centerburg High School,School,Public,40.294354,-82.705479
Davey Elementary School,School,Public,41.1576828,-81.3670015
Chambers Elementary School,School,Public,41.5408925,-81.5832041
Chestnut Intermediate Elementary School,School,Public,41.3990777,-81.9532042
East Canton High School,School,Public,40.7893435,-81.2791758
Toth Elementary School,School,Public,41.5537307,-83.6216234
Badger High School,School,Public,41.4137132,-80.5794299
Belpre High School,School,Public,39.2750849,-81.5771012
Blanchester Middle School,School,Public,39.299119,-83.9675636
Botkins High School,School,Public,40.4688865,-84.1796144
Buckeye Elementary School,School,Public,40.9133641,-80.8594869
Cambridge Middle School,School,Public,40.0514871,-81.5829546
Cedarwood Alternative Elementary School,School,Public,39.884089,-82.979327
Swanton Middle School,School,Public,41.5844508,-83.8937494
Fairview-Clifton German Language School,School,Public,39.1494666,-84.5196793
Bellefontaine High School,School,Public,40.3482931,-83.7535323
Bryan Elementary,School,Public,41.458431,-84.5689529
East Elementary School,School,Public,40.4886994,-81.4365683
Judith A Resnik Community Learning Center,School,Public,41.1171692,-81.5832927
Berea-Midpark Middle School,School,Public,41.3778995,-81.8048339
Arcadia High School,School,Public,41.1064685,-83.5150996
Bexley High School,School,Public,39.963655,-82.9303272
Bridgetown Middle School,School,Public,39.1603573,-84.6283725
Shaker Hts Middle School,School,Public,41.4773421,-81.5334151
Louise Troy Elementary School,School,Public,39.7369594,-84.2251626
London MIddle School,School,Public,39.9072364,-83.4531607
Cheviot School,School,Public,39.1587027,-84.617203
Clinton-Massie High School,School,Public,39.4466924,-83.9851733
Norwayne Middle School,School,Public,40.965294,-81.9029819
Waverly Primary School,School,Public,39.1318936,-83.0023416
Edgewater Elementary School,School,Public,41.7216689,-83.4704284
Elida High School,School,Public,40.7897771,-84.195762
Atkinson Elementary School,School,Public,41.3367052,-83.1001732
East Liverpool High School,School,Public,40.6277331,-80.5676996
Elida Middle School,School,Public,40.7874998,-84.1874185
Burroughs Elementary School,School,Public,39.943889,-83.0677648
Glenwood Middle School,School,Public,41.0610764,-83.6490864
Clearcreek Elementary School,School,Public,39.5470479,-84.232431
Elmwood Middle School,School,Public,41.255188,-83.5520465
Pike-Delta-York Middle School,School,Public,41.5804288,-83.9944482
Dundee Elementary School,School,Public,40.5852994,-81.6083806
Allen East Elementary School,School,Public,40.733796,-83.931273
First Step Preschool and Daycare,School,Public,41.357433,-81.770396
Austintown Middle School,School,Public,41.091889,-80.733631
Brimfield Elementary School,School,Public,41.103686,-81.3437178
Harrison Central Jr./Sr. High School,School,Public,40.2689332,-80.9922728
Canfield High School,School,Public,41.028398,-80.7732256
Case Community Learning Center,School,Public,41.1164386,-81.5648523
Ella Canavan Elementary School,School,Public,41.126736,-81.870718
Findley Community Learning Center,School,Public,41.1027272,-81.5172619
Auburn Elementary School,School,Public,40.8838529,-82.6734484
Bowling Green Middle School,School,Public,41.3885291,-83.6577274
Bucyrus Secondary School,School,Public,40.813664,-82.9899949
East Palestine High School,School,Public,40.8399626,-80.5461021
Edwards Middle School,School,Public,41.2345437,-81.8406721
South Central Elementary School,School,Public,41.0490696,-82.5189741
Westlake Elementary School,School,Public,41.4476223,-81.9268054
Bethel Tate High School,School,Public,38.9628625,-84.0644854
William Bruce Elementary School,School,Public,39.749397,-84.626022
Zane Trace Elementary School,School,Public,39.4277482,-82.9375514
John Clem Elementary School,School,Public,40.071441,-82.425421
Denver Place Elementary School,School,Public,39.4548906,-83.8231876
Frederick Douglass School,School,Public,39.1282823,-84.4864267
Eastern High School,School,Public,39.0301061,-82.842278
Federal Hocking High School,School,Public,39.3119524,-81.879507
Winton Woods Intermediate School,School,Public,39.2824448,-84.5047089
Franklin Elementary School,School,Public,41.3558311,-82.1132979
Berlin Elementary School,School,Public,40.5611806,-81.8013412
Cardinal Middle School,School,Public,41.468427,-81.06439
Cedar Elementary School,School,Public,40.794529,-81.4066915
Chase School,School,Public,39.1620656,-84.5429411
Claymont Middle School,School,Public,40.3944809,-81.3451839
Northwestern Middle School,School,Public,40.8920016,-82.1073689
Cory-Rawson High School,School,Public,40.937742,-83.805496
Crestview Elementary School,School,Public,40.9167516,-84.7016126
Danville High School,School,Public,40.4473063,-82.2616398
Dominion Middle School,School,Public,40.0540678,-83.0102037
Buhrer,School,Public,41.4682218,-81.6946085
Col Crawford High School,School,Public,40.786122,-82.853832
Byrnedale Elementary School,School,Public,41.610385,-83.629547
Antwerp Local Elementary School,School,Public,41.1782454,-84.729434
Ridge Elementary School,School,Public,41.6546165,-81.3582455
Fairfield Central Elementary School,School,Public,39.3413293,-84.5335803
Clara E Westropp School,School,Public,41.4334621,-81.831315
Chippewa Intermediate School,School,Public,40.9613859,-81.6923256
Jacob Coy Middle School,School,Public,39.7136721,-84.0013572
Frazeysburg Elementary School,School,Public,40.1196751,-82.1135171
Adlai Stevenson School,School,Public,41.454865,-81.5509811
Berne Union High School,School,Public,39.629482,-82.545978
Buchtel High School,School,Public,41.086213,-81.559941
Conotton Valley High School,School,Public,40.46303,-81.218821
David Anderson Jr/Sr High School,School,Public,40.7754336,-80.7725341
East End Elementary School,School,Public,39.4471354,-83.8153239
Milkovich Middle School,School,Public,41.414399,-81.540225
Edison Elementary School,School,Public,40.8792427,-82.3295046
Adena Elementary School,School,Public,39.4156613,-83.1946156
Fort Frye High School,School,Public,39.5475769,-81.6316783
Bloomfield High School,School,Public,41.46428,-80.87187
Brookfield Elementary School,School,Public,41.2257896,-80.5614223
Fairfax Elementary School,School,Public,41.694015,-81.3486719
Ada High School,School,Public,40.7747376,-83.8294826
Amanda-Clearcreek High School,School,Public,39.6496392,-82.7348828
Paint Valley Middle School,School,Public,39.2440211,-83.215769
Brookview Elementary School,School,Public,41.4044558,-81.7926478
Streetsboro Elementary School,School,Public,41.2342713,-81.3221934
Carrollton High School-Carrollton Middle School,School,Public,40.5732645,-81.0825369
Clinton Elementary School ,School,Public,40.0307579,-83.0150723
Lakeside Junior High School,School,Public,41.8429402,-80.8247404
Devonshire Alternative Elementary School,School,Public,40.094615,-82.982995
Greenville Elementary School,School,Public,40.115764,-84.6147152
Blanchester High School,School,Public,39.2989859,-83.9696138
Buckeye High School,School,Public,41.189708,-81.926195
Cambridge High School,School,Public,40.0523679,-81.5831952
Cherry Valley Elementary School,School,Public,40.0501135,-82.4403219
Charles W Springmyer Elementary School,School,Public,39.168692,-84.653675
Coldwater High School,School,Public,40.4820542,-84.6300194
Andrew J Rickoff ,School,Public,41.4629998,-81.5793387
Chaney High,School,Public,41.0923299,-80.6957107
Riverdale Elementary School,School,Public,40.86896,-83.517611
Adamsville Elementary School,School,Public,40.06602,-81.881849
West Clermont Middle School,School,Public,39.0610523,-84.22981
Aurora High School,School,Public,41.3101271,-81.3508443
Bay High School,School,Public,41.48693,-81.943396
River Valley Middle School ,School,Public,38.9180103,-82.2824671
Clough Pike Elementary School,School,Public,39.0912624,-84.2936909
Crestview Elementary School,School,Public,41.26819,-81.787026
Dan Emmett Elementary School,School,Public,40.4078583,-82.4863591
Edgewood Middle School,School,Public,40.8321678,-81.9332319
Elmwood Elementary School,School,Public,41.41795,-81.6055916
Fairview High School,School,Public,41.4423345,-81.8556896
Hubbard Mastery School ,School,Public,39.9787782,-83.0072236
Seneca East Elementary,School,Public,41.0788637,-82.9154244
Columbia High School,School,Public,41.311195,-81.923732
Edon High School,School,Public,41.558151,-84.781086
Beaver Local High School,School,Public,40.7106482,-80.6303345
Colerain Middle School,School,Public,39.2388974,-84.6138387
Midview West Elementary School,School,Public,41.2987569,-82.0562398
Evening Street Elementary School,School,Public,40.0915831,-83.022711
West Elementary,School,Public,39.2722774,-82.6093438
Newton Falls Elementary School,School,Public,41.1775205,-80.9569514
Celina Middle School,School,Public,40.5561408,-84.5615102
Central Academy Nongraded Elementary School,School,Public,39.5160562,-84.3477272
Charles Dickens School,School,Public,41.4563438,-81.5917462
Amanda-Clearcreek Primary School,School,Public,39.6516548,-82.7385053
East Elementary School,School,Public,40.3916252,-82.4724411
Eastern Heights Middle School,School,Public,41.3632692,-82.0901606
Avery Elementary School,School,Public,40.0418337,-83.1551009
Beachwood High School,School,Public,41.4832969,-81.5011991
Binns Elementary School,School,Public,39.9324582,-83.0796735
Tuscarawas Valley Intermediate,School,Public,40.6546036,-81.4502175
Malabar Intermediate School,School,Public,40.7304088,-82.5197144
Southwestern Elementary School,School,Public,38.8242807,-82.4017564
Cassingham Elementary School,School,Public,39.9647438,-82.9301311
Deer Park  Jr/Sr High School,School,Public,39.210576,-84.3994274
Finland Elementary School,School,Public,39.9197497,-83.0409222
Fostoria Junior/Senior High School,School,Public,41.169419,-83.4324676
Timmons Elementary School,School,Public,41.394432,-81.301112
Budd Elementary School,School,Public,40.6351216,-82.2314614
Fairfield Local Elementary School,School,Public,39.3288078,-83.5466597
Alton Hall Elementary School,School,Public,39.9292746,-83.1768748
Bataan Memorial Primary School,School,Public,41.506259,-82.9508075
Bethel High School,School,Public,39.9190184,-84.0862684
Brecksville-Broadview Heights High School,School,Public,41.3272432,-81.6444337
Burroughs Elementary School,School,Public,41.6314088,-83.6019967
Cardinal High School,School,Public,41.4658302,-81.0677218
Clermont Northeastern High School,School,Public,39.1305534,-84.1063538
Covington Elementary School,School,Public,40.1191699,-84.342006
Duxberry Park Alternative Elementary School,School,Public,40.0089486,-82.9612036
St. Marys East Primary School,School,Public,40.551791,-84.381148
Eaton High School,School,Public,39.7331336,-84.6486044
Elm Avenue Elementary School,School,Public,39.220632,-84.470357
Englewood Elementary School,School,Public,39.8717008,-84.3003762
Euclid Park Elementary School,School,Public,41.5534043,-81.5529824
Franklin Monroe High School,School,Public,39.981471,-84.48178
Asbury Elementary School,School,Public,39.901705,-82.865156
Gorsuch West Elementary School,School,Public,39.7105193,-82.6270894
Defiance High School,School,Public,41.2640775,-84.3596269
Ontario Primary School,School,Public,41.873992,-80.8161238
Crouse Community Learning Center,School,Public,41.0768277,-81.5529152
Upper Scioto Valley Middle School,School,Public,40.691297,-83.7880098
Antwerp Local High School,School,Public,41.1782454,-84.729434
Bath Elementary School,School,Public,41.169929,-81.63836
Butler Middle School,School,Public,39.9953422,-84.5488362
C H Campbell Elementary School,School,Public,41.0344347,-80.7734853
Eastmont Elementary School,School,Public,39.7373992,-84.1124232
Fernway Elementary School,School,Public,41.4709562,-81.5573288
Adrian Elementary School,School,Public,41.531023,-81.526137
Lakeside High School,School,Public,41.84373,-80.819577
Ballard Brady Middle School,School,Public,41.456301,-81.450813
Buckeye Central High School,School,Public,40.951189,-82.846877
Liberty Elementary School,School,Public,40.626421,-82.965134
Edison Elementary School,School,Public,39.7580925,-84.2141001
Franklin High School,School,Public,39.5537677,-84.2872926
Anderson High School,School,Public,39.06943,-84.3474924
Warren Middle School,School,Public,39.3989962,-81.6649008
Miami Trace Middle School,School,Public,39.5953588,-83.5126719
Alfred Benesch,School,Public,41.4937331,-81.6524248
Claymont High School,School,Public,40.4139038,-81.3648614
Dueber Elementary School,School,Public,40.7942091,-81.3945399
Edison Elementary School,School,Public,41.61911,-81.435494
Crestview Middle School,School,Public,40.8453988,-80.6687759
Baker Elementary School,School,Public,41.223431,-80.67173
Gearity Professional Development School,School,Public,41.4956469,-81.5259566
Jonathan Alder Junior High,School,Public,40.0677225,-83.291814
Dater Montessori School,School,Public,39.1347767,-84.6029649
Columbus Grove Elementary School,School,Public,40.9216636,-84.0560854
Coolville Elementary School,School,Public,39.2221193,-81.794868
Chesapeake Middle School,School,Public,38.4228513,-82.4823916
Elmhurst Elementary School,School,Public,41.6999191,-83.6140146
Fairview Elementary School,School,Public,39.7903856,-84.2293131
Boulevard Elementary School,School,Public,41.481176,-81.57777
Buckeye Middle School,School,Public,39.9027214,-82.9849737
Camden Primary School,School,Public,39.6315777,-84.6491385
Cridersville Elementary School,School,Public,40.6491322,-84.1498204
Massillon Junior High School,School,Public,40.7876237,-81.5627616
Brookside Intermediate School,School,Public,41.467061,-82.096422
Berry Intermediate School,School,Public,39.4388077,-84.2096818
Brown Middle School,School,Public,41.157705,-81.2638602
Mason Middle School,School,Public,39.3459311,-84.3085088
Dorr Street Elementary School,School,Public,41.6527643,-83.7239399
Fassett Junior High  School,School,Public,41.6451546,-83.4751908
Forest Elementary School,School,Public,40.035914,-84.1998394
Amesville Elementary School,School,Public,39.4004436,-81.955612
Belle Haven Elementary School,School,Public,39.7991706,-84.2628764
C O Harrison Elementary School,School,Public,39.103303,-84.6388088
Starling PK-8,School,Public,39.9545978,-83.038571
Dixie High School,School,Public,39.7418726,-84.4026789
Urbana Elementary School,School,Public,40.086505,-83.7563861
SPRINGFIELD SCHOOL OF INNOVATION,School,Public,39.9133984,-83.8001874
Fairwood Alternative Elementary School,School,Public,39.9521334,-82.9529284
Fremont Middle School,School,Public,41.3617168,-83.1260384
Beavercreek High School,School,Public,39.7217118,-84.0332145
Bloom Carroll Intermediate School,School,Public,39.8026766,-82.8096538
College Corner Union Elementary School,School,Public,39.5716199,-84.8156601
East Clark,School,Public,41.555614,-81.5799499
Arts Impact Middle School (Aims) ,School,Public,39.9739148,-82.9863754
Fishcreek Elementary School,School,Public,41.1879247,-81.4273404
Alliance High School,School,Public,40.9111438,-81.1115052
Avon East Elementary School,School,Public,41.4459331,-81.9902103
Brookfield High School,School,Public,41.2257896,-80.5614223
Chesapeake High School,School,Public,38.4227854,-82.4851491
Chippewa Elementary School,School,Public,41.3270981,-81.6051334
Springboro High School,School,Public,39.5315519,-84.2450019
Demmitt Elementary School,School,Public,39.891988,-84.1768952
Fairlawn Elementary School,School,Public,40.2664553,-84.0769745
Bellevue High School,School,Public,41.2816479,-82.8433632
Bolton,School,Public,41.494656,-81.619056
Bristol Elementary School,School,Public,41.3868144,-80.8667655
Bryan Middle School/High School,School,Public,41.4575654,-84.5674214
Bluffton Elementary School,School,Public,40.8945821,-83.8929345
Chapelfield Elementary School,School,Public,40.0267781,-82.8868576
Cloverleaf High School,School,Public,41.0406586,-81.9639696
Bloom Carroll Primary School,School,Public,39.7962256,-82.7003153
Newton Falls Middle School,School,Public,41.1775205,-80.9569514
Chagrin Falls High School,School,Public,41.4292662,-81.3796157
Edgewood Elementary School,School,Public,40.2350248,-83.3820273
Fairbanks High School,School,Public,40.1615231,-83.3917154
Fairborn Primary School,School,Public,39.7913121,-84.0261611
Columbus Scioto 6-12,School,Public,39.901558,-82.997692
Seneca East High School,School,Public,41.0788637,-82.9154244
Avondale Elementary School,School,Public,40.8314881,-81.4195058
Batavia Elementary School,School,Public,39.0754517,-84.1249494
Bethel-Tate Middle School,School,Public,38.9644509,-84.094176
Brecksville-Broadview Heights Middle School,School,Public,41.3293738,-81.642606
Brunswick High School,School,Public,41.2420617,-81.816942
Burton Elementary School,School,Public,41.4686856,-81.1488206
Cardington-Lincoln High School,School,Public,40.4947631,-82.8820637
Cleveland Elementary School,School,Public,39.7451501,-84.1502297
Columbia Middle School,School,Public,41.3160515,-81.9271743
Covington High School,School,Public,40.1191699,-84.342006
E A Powell Elementary School,School,Public,41.1873937,-83.6780372
Martins Ferry Middle School,School,Public,40.1107802,-80.7270172
Fairmount Early Childhood Center,School,Public,41.4873091,-81.5029761
Felicity-Franklin Local  Elementary School,School,Public,38.8354209,-84.098302
Firestone Park Elementary School,School,Public,41.0426554,-81.5156935
Buckeye West Elementary School,School,Public,40.2209666,-80.8707436
Ashland High School,School,Public,40.8545356,-82.3253498
Arlington Elementary School,School,Public,41.6263357,-83.5861911
Beacon Elementary School,School,Public,40.0259414,-83.1332359
Wellston Intermediate School,School,Public,39.1364571,-82.5359548
Eastern High School,School,Public,38.9550697,-83.7382787
Genoa Elementary,School,Public,41.5654008,-83.3585376
Apple Creek Elementary School,School,Public,40.7509726,-81.8385808
Champion Central Elementary School,School,Public,41.3166163,-80.8492621
Indian Hill Elementary School,School,Public,39.1767745,-84.3446092
Prospect Elementary School,School,Public,41.15837,-80.687712
Elda Elementary School,School,Public,39.3196203,-84.6403375
Erieview Elementary School,School,Public,41.5113074,-82.0121874
Bath Elementary School,School,Public,40.7744989,-84.0595041
Bellaire High School,School,Public,40.0175061,-80.7421419
Betty Jane Community Learning Center,School,Public,41.0759598,-81.4429864
Butler High School,School,Public,39.8845888,-84.1973884
Carlisle High School,School,Public,39.5880183,-84.3224733
Continental Local Elementary School,School,Public,41.1068795,-84.2640003
David Smith Elementary School,School,Public,40.3101871,-83.0726292
Fairfield High School,School,Public,39.336669,-84.5180408
Fredericksburg Elementary School,School,Public,40.6756208,-81.8714539
Ashville Elementary School,School,Public,39.7154993,-82.9477448
Bedford High School,School,Public,41.403548,-81.526911
East Knox Junior/Senior High School,School,Public,40.4093109,-82.3294077
Edison High School,School,Public,41.3009226,-82.5738477
Euclid High School,School,Public,41.5965807,-81.5255389
Allen Elementary School,School,Public,40.7844379,-81.36426
Arcanum Elementary School,School,Public,39.9953422,-84.5488362
Bradford Elementary School,School,Public,40.141276,-84.4327746
Brookville High School,School,Public,39.8282423,-84.420385
W. S. Stinson Elementary School,School,Public,40.9006245,-81.6063055
Coshocton High School,School,Public,40.2582311,-81.8456308
Delhi Middle School,School,Public,39.1046098,-84.6151242
Dunbar Elementary School,School,Public,41.0802721,-81.4055427
East Community Learning Center,School,Public,41.0640144,-81.467892
Eastview Elementary School,School,Public,40.7931667,-82.4580916
Miami East Elementary,School,Public,40.087454,-84.114266
Coventry Middle School,School,Public,41.0098703,-81.5484669
Fairfield Freshman High School,School,Public,39.338145,-84.5183232
Sandusky Middle School,School,Public,41.4541264,-82.7098014
Boulevard Elementary School,School,Public,41.5122714,-81.566241
Copley High School,School,Public,41.112801,-81.649346
Primary Elementary School,School,Public,40.7396309,-82.8006758
Dike School of Arts,School,Public,41.4907618,-81.6470444
Celina Primary School,School,Public,40.5528667,-84.5662553
Buckeye Valley Local High School,School,Public,40.348691,-83.091603
Clarendon Elementary School,School,Public,40.8034835,-81.4030419
Colerain Elementary School,School,Public,40.0541933,-83.0068526
Anna Elementary School,School,Public,40.401433,-84.1754437
Berwick Alternative K-8 School,School,Public,39.9390507,-82.9243562
Caledonia Elementary School,School,Public,41.5352207,-81.5619564
Canterbury Elementary School,School,Public,41.4915602,-81.5504726
Central Elementary School,School,Public,40.4935684,-81.44631
Forest Hill Community Learning Center,School,Public,41.0990156,-81.4944493
Franklin Heights High School,School,Public,39.9326276,-83.0918838
Arrowhead Primary Elementary School,School,Public,41.091079,-81.63909
Bowsher High School,School,Public,41.624538,-83.5985032
Buckeye North Elementary School,School,Public,40.2613118,-80.6327865
C R Towslee Elementary School,School,Public,41.2393174,-81.8134694
Danbury Elementary School,School,Public,41.536318,-82.754286
Joshua Dixon Elementary School,School,Public,40.8945166,-80.6976481
East Elementary School,School,Public,39.3346962,-82.0945845
Brookfield Middle School,School,Public,41.2257896,-80.5614223
Clark School,School,Public,41.4705078,-81.723948
Croghan Elementary School,School,Public,41.3468622,-83.0954008
Dover Avenue Elementary School,School,Public,40.5327144,-81.4856935
East Clinton High School,School,Public,39.418323,-83.648484
Edgerton Elementary School,School,Public,41.455736,-84.7464099
Evergreen High School,School,Public,41.680245,-83.973045
Sharpsburg Primary ,School,Public,39.1561686,-84.4494179
Avon Early Learning Center,School,Public,41.4449531,-82.0272483
Bellevue Middle School,School,Public,41.2856306,-82.8383978
Chippewa Jr./Sr. High School,School,Public,40.9651188,-81.7051283
Conneaut Elementary School,School,Public,41.37986,-83.662354
Covedale School,School,Public,39.1242787,-84.6071412
Denison,School,Public,41.451638,-81.704175
East Elementary School,School,Public,40.529538,-81.4683639
Ellet High School,School,Public,41.0532797,-81.4329501
Fairlawn High School,School,Public,40.2664553,-84.0769745
Bristol High School,School,Public,41.3868144,-80.8667655
Chardon High School,School,Public,41.591074,-81.199946
Crestview High School,School,Public,40.8453988,-80.6687759
Amherst Elementary School,School,Public,40.8353669,-81.5146388
Brook Park Memorial Elementary School,School,Public,41.396311,-81.818502
Perry Elementary School,School,Public,41.7734623,-81.1362883
Brookwood Elementary School,School,Public,39.419375,-84.606241
Edgewood High School,School,Public,41.8858812,-80.7309697
Elmwood High School,School,Public,41.255188,-83.5520465
Ayersville Elementary School,School,Public,41.2374156,-84.2843468
Belden Elementary School,School,Public,40.7972156,-81.3482893
Belmont High School,School,Public,39.7382414,-84.1561893
Cox Elementary School,School,Public,39.686508,-83.945198
Patrick Henry High School,School,Public,41.22599,-83.9960838
Fort Recovery Middle School,School,Public,40.407706,-84.7712933
Arlington Local Elementary School,School,Public,40.889062,-83.6522985
Birmingham Elementary School,School,Public,41.6626128,-83.4950652
Charles L Warstler Elementary School,School,Public,40.865696,-81.33766
Dalton Elementary School,School,Public,40.8046042,-81.6982862
Dunloe Elementary School,School,Public,39.9112309,-82.857817
Eastwood I High School,School,Public,41.4277011,-83.4901203
Etna Elementary School,School,Public,39.9651612,-82.6966185
Finneytown Secondary Campus  ,School,Public,39.229156,-84.51559
Allen East High School,School,Public,40.733796,-83.931273
Oakwood Elementary School,School,Public,41.09654,-84.380263
Bath High School,School,Public,40.7730096,-84.0522585
Clay High School,School,Public,41.6529445,-83.4127169
Northwest Primary School,School,Public,40.9006245,-81.6063055
Mississinawa Valley Elementary School,School,Public,40.2218051,-84.7468401
North Royalton High School,School,Public,41.3090867,-81.7334031
Fairfield Local High School,School,Public,39.3288078,-83.5466597
Field High School,School,Public,41.0681459,-81.345074
Bellbrook Middle School,School,Public,39.6610788,-84.0718613
Beverly Elementary School,School,Public,41.6016983,-83.6094822
Bluffton High School,School,Public,40.892978,-83.8938452
Fredericktown Elementary School,School,Public,40.475551,-82.553731
Chagrin Falls Middle School,School,Public,41.426818,-81.380651
Beatty Park Elementary School,School,Public,39.9763356,-82.9714937
Midview North Elementary School,School,Public,41.299102,-82.0576509
Cardington-Lincoln Elementary School,School,Public,40.4961687,-82.8919429
Chestnut Elementary School,School,Public,41.7046252,-81.255411
Echo Hills Elementary School,School,Public,41.1812197,-81.4258324
Evamere Elementary School,School,Public,41.2430434,-81.4285565
Fort Island Primary Elementary School,School,Public,41.1203292,-81.6258814
Ashland Middle School,School,Public,40.8522252,-82.3252376
Barnesville Elementary School,School,Public,39.9887071,-81.1786256
Bay Middle School,School,Public,41.484162,-81.926611
Edison Middle School (formerly Berlin-Milan Middle School),School,Public,41.3238657,-82.4913444
E J Blott Elementary School,School,Public,41.1573084,-80.6566526
Bradford High School,School,Public,40.1414277,-84.4327573
Paul C Bunn Elementary School,School,Public,41.047691,-80.623403
Cherrington Elementary School,School,Public,40.114384,-82.907953
Cuyahoga Falls High School,School,Public,41.1394062,-81.4874655
Carrollton Elementary School,School,Public,40.5732645,-81.0825369
Dunbar Early College High School,School,Public,39.734241,-84.232103
Eastview Elementary School,School,Public,41.5036833,-81.9895449
Elizabeth Price Elementary School,School,Public,41.1353926,-81.4644311
Fairland East Elementary School,School,Public,38.4621523,-82.3189457
Valley View Intermediate School,School,Public,39.6297558,-84.37203
Struthers Middle School,School,Public,41.0487023,-80.6029422
Franklin Elementary School,School,Public,41.0130153,-81.7254439
Carylwood Intermediate School,School,Public,41.375817,-81.5162786
Champion High School,School,Public,41.316068,-80.8512961
Colonial Hills Elementary School,School,Public,40.0823425,-83.0085248
Alexander Elementary School,School,Public,39.2257046,-82.2066378
Anna High School,School,Public,40.4014401,-84.1753203
Alden R Brown Elementary School,School,Public,39.5861169,-84.3222264
Celina High School,School,Public,40.5528667,-84.5662553
Central Elementary School,School,Public,40.675213,-82.5845963
Watkins Elementary School,School,Public,39.9054017,-82.9542727
Colerain Elementary School,School,Public,39.2397282,-84.6143463
Continental Local High School,School,Public,41.1068795,-84.2640003
Crim Elementary School,School,Public,41.3705239,-83.6366303
East Technical High School,School,Public,41.4924064,-81.6499118
Edison Middle School,School,Public,40.789897,-81.464433
Athens High School,School,Public,39.3724446,-82.1280038
Barrington Road Elementary School,School,Public,40.000141,-83.056566
Burlington Elementary School,School,Public,38.4151771,-82.5061819
Canton South High School,School,Public,40.7484989,-81.3717701
Concord Elementary School,School,Public,40.04003,-84.2613547
Danbury High School,School,Public,41.536318,-82.754286
Addaville Elementary School,School,Public,38.9053278,-82.1720695
Pugliese Elementary West,School,Public,40.3712088,-80.6700444
Arcanum High School,School,Public,39.9953422,-84.5488362
Amelia Elementary School,School,Public,39.0302296,-84.2152517
Anthony Wayne Elementary School,School,Public,39.5533841,-84.3119532
Beavertown Elementary School,School,Public,39.7073646,-84.14145
Benjamin Franklin ,School,Public,41.4344395,-81.6938772
South Webster Jr/Sr High School,School,Public,38.8172406,-82.7341642
College Hill Fundamental Academy,School,Public,39.1980434,-84.5482946
Copley-Fairlawn Middle School,School,Public,41.096272,-81.6430745
Crooksville High School,School,Public,39.7444267,-82.0884183
Dawson-Bryant High School,School,Public,38.5031842,-82.6458721
Edgerton High School,School,Public,41.455736,-84.7464099
Edon Elementary School,School,Public,41.558151,-84.781086
Englewood Hills Elementary School,School,Public,39.859566,-84.3046444
Fairview High School,School,Public,41.34907,-84.552018
Olmsted Falls Intermediate Building,School,Public,41.3698494,-81.9351292
Avon High School,School,Public,41.444481,-82.036634
Bond Hill Academy,School,Public,39.176674,-84.471655
Circleville High School,School,Public,39.6077965,-82.9218418
Conneaut High School,School,Public,41.9467423,-80.5617262
Darbydale Elementary School,School,Public,39.8535403,-83.1866255
Dentzler Elementary School,School,Public,41.3714427,-81.7105524
Hollingsworth East Elementary School,School,Public,39.749397,-84.626022
Fairless High School,School,Public,40.7038755,-81.584482
Bryden Elementary School,School,Public,41.4691187,-81.5003105
Chardon Middle School,School,Public,41.5905546,-81.2044572
North College Hill Elementary School,School,Public,39.2186014,-84.5547803
Crestview High School,School,Public,40.9167516,-84.7016126
Eaton Middle School,School,Public,39.7329385,-84.6455631
Barber Community Learning Center,School,Public,41.0827049,-81.474734
Edgewood Elementary School,School,Public,39.4753869,-84.4880481
Bloom-Carroll High School,School,Public,39.7917179,-82.6958339
Columbian High School,School,Public,41.1090652,-83.1797857
Wallace H Braden Middle School,School,Public,41.8735078,-80.7710613
Elmwood Place Elementary School,School,Public,39.1880581,-84.4880429
Ben Franklin Elementary School,School,Public,40.044354,-82.3969
Ayersville High School,School,Public,41.2374156,-84.2843468
Damascus Elementary,School,Public,40.9094662,-80.9549773
Woodridge Middle School,School,Public,41.1940806,-81.508993
Brent Elementary School,School,Public,39.2269099,-84.511062
DeVeaux Elementary School,School,Public,41.6933002,-83.6078889
River's Edge Montessori Elementary School,School,Public,39.7666537,-84.1909998
Almira,School,Public,41.4616658,-81.7516976
Beallsville Elementary School,School,Public,39.8469221,-81.0239466
Samuel Bissell Elementary School,School,Public,41.3415027,-81.4643581
Britton Elementary School,School,Public,40.051707,-83.136836
Willard Elementary School ,School,Public,41.0460886,-82.7297708
Crestwood Elementary School,School,Public,41.3977702,-82.1431854
Donnell Middle School,School,Public,41.0263763,-83.6532127
Durling Middle School,School,Public,41.4273333,-82.1666892
Lee Eaton Elementary School,School,Public,41.3365488,-81.5271093
Etna Road Elementary School,School,Public,39.963493,-82.8790099
Firelands Elementary School,School,Public,41.3346133,-82.2986343
Frontier High School,School,Public,39.4465993,-81.1435293
Bellbrook High School,School,Public,39.652728,-84.0677985
Beaver Local Elementary School,School,Public,40.7106482,-80.6303345
Centerville High School,School,Public,39.6269909,-84.1482953
Chestnut Ridge Elementary School,School,Public,40.5608106,-81.7994697
Columbus Grove High School,School,Public,40.9216636,-84.0560854
Dawson-Bryant Elementary School,School,Public,38.5040246,-82.5818815
Elgin High School,School,Public,40.569214,-83.244939
Bremen Elementary School,School,Public,39.6996378,-82.4338243
Fredericktown High School,School,Public,40.475551,-82.553731
Wapakoneta Middle School,School,Public,40.5732802,-84.2013633
Byesville Elementary School,School,Public,39.970402,-81.53538
Chalker High School,School,Public,41.2840122,-80.9596478
Coy Elementary School,School,Public,41.6294454,-83.4611939
Amanda-Clearcreek Elementary School,School,Public,39.6496392,-82.7348828
Columbus Spanish Immersion K-6 School,School,Public,40.0474781,-82.9751054
Broadway Elementary School,School,Public,39.9595876,-84.1753529
Brush High School,School,Public,41.5220323,-81.5052972
Carey High School,School,Public,40.9453476,-83.3872613
Cedarville Elementary School,School,Charter,39.7479302,-83.8049294
Lima North Middle School,School,Charter,40.7579544,-84.109371
Rosa Parks Elementary School,School,Charter,41.6832293,-83.5519042
Clear Fork High School,School,Charter,40.6102028,-82.474768
East Elementary School,School,Charter,40.8320131,-83.2762906
Craddock Elementary School,School,Charter,41.3161928,-81.3415477
Berne Union Elementary School,School,Charter,39.629482,-82.545978
Canal Winchester High School,School,Charter,39.8367474,-82.8131419
Delta Elementary School,School,Charter,41.5796901,-83.9944148
Rossford Elementary School,School,Charter,41.5907521,-83.5681234
Revere Middle School,School,Charter,41.1987005,-81.617037
Fairland High School,School,Charter,38.4481263,-82.3568864
Fremont Ross High School,School,Charter,41.3624752,-83.1235996
Applewood Elementary School,School,Charter,41.2246688,-81.8267911
Bath Middle School,School,Charter,40.7735443,-84.0549833
Beverly-Center Elementary School,School,Charter,39.5485269,-81.6292811
Champion Middle School,School,Charter,39.9717191,-82.9704018
Creekview Elementary School,School,Charter,39.5051605,-84.3433831
Currie Elementary School,School,Charter,41.308427,-80.687254
Driscoll Elementary School,School,Charter,39.6619855,-84.1488724
Field Middle School,School,Charter,41.0673184,-81.3437587
Albion Elementary School,School,Charter,41.3372519,-81.7558851
Ansonia Elementary School,School,Charter,40.2156648,-84.6288493
Bobby F. Grigsby Intermediate School,School,Charter,39.590522,-84.320452
Wadsworth Middle School,School,Charter,41.024034,-81.7038648
Clearmount Elementary School,School,Charter,40.8740659,-81.3908257
Colerain High School,School,Charter,39.2323645,-84.6026755
Coventry High School,School,Charter,41.0064399,-81.553558
Johnstown Elementary School,School,Charter,40.1626384,-82.6844
Fayetteville-Perry Elementary School,School,Charter,39.1820825,-83.9318845
Beechwood Elementary School,School,Charter,39.965955,-82.894712
Bethel Elementary School,School,Charter,39.9190184,-84.0862684
Summerside Elementary,School,Charter,39.1116885,-84.2836944
Daniel E Morgan School,School,Charter,41.516936,-81.625275
Artemus Ward,School,Charter,41.436373,-81.7901858
Archbold Elementary School,School,Charter,41.5162366,-84.3100845
Lakeview Elementary School,School,Charter,41.2927766,-80.7797178
Big Walnut High School,School,Charter,40.234464,-82.858173
Blue Ash Elementary,School,Charter,39.2317862,-84.3990573
Cuyahoga Hts Elementary School,School,Charter,41.4261927,-81.6436467
Duncan Falls Elementary School,School,Charter,39.877251,-81.911961
Highland Elementary School,School,Charter,39.4147875,-84.5855349
Alexander Jr. / Sr. High School,School,Charter,39.2251292,-82.2031908
Anthony Wayne High School,School,Charter,41.533359,-83.7791617
Waterloo Elementary School,School,Charter,41.028547,-81.193022
Batavia High School,School,Charter,39.0732811,-84.1290199
Conotton Valley Elementary,School,Charter,40.46303,-81.218821
Collinwood High School,School,Charter,41.5530512,-81.574081
Copopa Elementary School,School,Charter,41.3160267,-81.9276308
Dawson-Bryant Middle School,School,Charter,38.5031842,-82.6458721
Dover High School,School,Charter,40.5233054,-81.4817046
Jesse Beer - Madison Early Childhood Learning Center,School,Charter,40.7551134,-82.4879935
Easthaven Elementary School,School,Charter,39.9237627,-82.9068707
Indian Valley Intermediate School,School,Charter,39.8640471,-83.9355215
Fairfield Elementary School,School,Charter,41.5798441,-83.6509704
Felicity-Franklin Local  High School,School,Charter,38.8354209,-84.098302
Fitch High School,School,Charter,41.092355,-80.739023
Gilbert A. Dater High School,School,Charter,39.124978,-84.601302
East Columbus Elementary School,School,Charter,39.9864917,-82.9211867
Forest Park Elementary School,School,Charter,40.0799294,-82.9818242
Amity Elementary School,School,Charter,39.2084597,-84.3934161
Napoleon Elementary School,School,Charter,41.3891519,-84.1534786
Charles A Mooney School,School,Charter,41.435315,-81.7058114
McPherson Middle School,School,Charter,41.288101,-82.969655
Crestview High School,School,Charter,40.8907203,-82.4573576
Ely Elementary School,School,Charter,41.3760502,-82.0949248
Barberton High School,School,Charter,41.0261589,-81.6074901
Berkshire High School,School,Charter,41.4706089,-81.1450995
Brookside Elementary School,School,Charter,40.1014829,-83.0577834
Brook Intermediate School,School,Charter,39.9495601,-81.5585947
Ironton Middle School,School,Charter,38.5531855,-82.7066391
Centerburg Elementary School,School,Charter,40.299446,-82.696083
Columbiana High School,School,Charter,40.88137,-80.6788121
Fallen Timbers Middle School,School,Charter,41.5297256,-83.7795764
Botkins Elementary School,School,Charter,40.4688865,-84.1796144
Buckeye Elementary School,School,Charter,41.7007891,-81.2628875
Butler Elementary School,School,Charter,40.590616,-82.429053
Mt. Pleasant Elementary School,School,Charter,39.7216162,-82.5999446
Franklin Elementary School,School,Charter,40.8462728,-84.336621
Adena High School,School,Charter,39.4156613,-83.1946156
Alpine Elementary School,School,Charter,40.095578,-82.9737619
Arlington Local High School,School,Charter,40.889062,-83.6522985
Avon Lake High School,School,Charter,41.5082601,-82.0163606
Beallsville High School,School,Charter,39.8476907,-81.0408565
Bellville Elementary School,School,Charter,40.618115,-82.508222
Broadleigh Elementary School,School,Charter,39.9752972,-82.9211019
Caldwell High School,School,Charter,39.7510268,-81.5177256
Wellston Middle School,School,Charter,39.1364571,-82.5359548
Charles W Eliot  School,School,Charter,41.4493786,-81.5532449
Circleville Middle School,School,Charter,39.6076253,-82.9249862
Crestwood High School,School,Charter,41.2887917,-81.2259249
Donnelsville Elementary School,School,Charter,39.9195001,-83.9438829
Western Reserve Elementary School,School,Charter,41.0254832,-80.9130621
Emerson Elementary School,School,Charter,40.127319,-82.928815
Euclid Central Middle School,School,Charter,41.5696719,-81.5361586
Fairmoor Elementary School,School,Charter,39.9618519,-82.9119992
Firelands High School,School,Charter,41.3368059,-82.2988039
Boardman Glenwood Junior High,School,Charter,41.0134,-80.669584
Central Trail Elementary School,School,Charter,41.6934409,-83.7638938
Dalton High School,School,Charter,40.8035076,-81.6959482
Defiance Middle School,School,Charter,41.2640775,-84.3596269
Fairfield Union High School,School,Charter,39.7543593,-82.4669832
R B Chamberlin Middle School,School,Charter,41.3212197,-81.4559647
Cranbrook Elementary School,School,Charter,40.0247332,-83.0388647
East Canton Elementary School,School,Charter,40.7893435,-81.2791758
Amanda Elementary School,School,Charter,39.4789856,-84.4079922
Babeck Early Childhood School,School,Charter,39.4734756,-84.4577341
Beaver Local Middle School,School,Charter,40.7106482,-80.6303345
Blairwood Elementary School,School,Charter,39.728167,-84.27352
Cedarville High School,School,Charter,39.7479302,-83.8049294
Crooksville Middle School,School,Charter,39.7406737,-82.1008059
Wauseon Elementary School,School,Charter,41.5517049,-84.1306236
Evendale Elementary School,School,Charter,39.254282,-84.399666
Fairport Harding High School,School,Charter,41.7547211,-81.2726964
Rittman Middle School,School,Charter,40.9754727,-81.796216
Austinburg Elementary School,School,Charter,41.770351,-80.86094
Bolich Middle School,School,Charter,41.1453945,-81.5002318
Pike-Delta-York High School,School,Charter,41.5827313,-84.0000508
Eakin Elementary School,School,Charter,39.9398501,-83.0991254
Fairland Middle School,School,Charter,38.4444149,-82.357954
Arcadia Elementary School,School,Charter,41.1064685,-83.5150996
Bauer Elementary School,School,Charter,39.6512427,-84.2257497
Beverly Gardens Elementary School,School,Charter,39.7652049,-84.1060907
The Bridgeport School District - High School,School,Charter,40.0691947,-80.7773807
Champion Middle School,School,Charter,41.3166163,-80.8492621
Crestline High School,School,Charter,40.7991935,-82.7428476
West Muskingum Elementary School,School,Charter,39.9571741,-82.0876083
Claymont Elementary School,School,Charter,40.401372,-81.341453
Ervin Carlisle Elementary School,School,Charter,40.2944345,-83.0378832
Winton Woods Primary North,School,Charter,39.2701822,-84.510667
Columbia Elementary School,School,Charter,40.3802838,-82.4953683
Cookson Elementary School,School,Charter,40.046906,-84.185114
Daw Elementary School,School,Charter,40.6040788,-80.6487327
Memorial School,School,Charter,41.5710747,-81.5762658
East Linden Elementary School,School,Charter,40.020086,-82.9480526
Eastern High School,School,Charter,39.1222543,-81.8826132
Niles Middle School,School,Charter,41.1724982,-80.764222
Fayetteville-Perry High School,School,Charter,39.1836777,-83.931336
Brantwood Elementary School,School,Charter,39.8110222,-84.1407928
Wauseon Middle School,School,Charter,41.5533712,-84.122651
Xenia Preschool,School,Charter,39.6904183,-83.9265371
Cuyahoga Hts High School,School,Charter,41.4277357,-81.6435526
Archbold High School,School,Charter,41.516075,-84.313563
Brown Elementary School,School,Charter,40.0005882,-83.2012362
Case ,School,Charter,41.5138443,-81.6614231
Central Primary School,School,Charter,41.3902574,-81.5311005
Philo Junior High School,School,Charter,39.8625117,-81.9102254
Eastwood Elementary School,School,Charter,41.2922314,-82.2096705
Findlay High School,School,Charter,41.0566539,-83.6659271
French Run Elementary School,School,Charter,39.9594087,-82.7986615
Bowling Green High School,School,Charter,41.3874566,-83.6572849
Brooklyn High School,School,Charter,41.4307536,-81.749731
Buckskin Elementary School,School,Charter,39.3359619,-83.3099764
Cork Elementary School,School,Charter,41.732213,-80.953886
Dowds Elementary School,School,Charter,40.8687619,-82.6469153
Eastlake Middle School,School,Charter,41.6742152,-81.422812
Franklin Monroe Elementary School,School,Charter,39.981471,-84.48178
Frazer Elementary School,School,Charter,40.841606,-81.373983
Ansonia High School,School,Charter,40.2156648,-84.6288493
Bascom Elementary School,School,Charter,41.254383,-80.874059
Reading Primary Elementary School,School,Charter,39.2207937,-84.4265901
Clearview High School,School,Charter,41.4256157,-82.1643095
Crissey Elementary School,School,Charter,41.6104602,-83.7626127
Arthur Road Elementary School,School,Charter,41.3716704,-81.441436
East Palestine Elementary School,School,Charter,40.8387802,-80.5443428
Chase STEM Academy,School,Charter,41.6841254,-83.4962733
Chillicothe High School,School,Charter,39.3420113,-82.9884027
Clay High School,School,Charter,38.8039861,-82.9822441
Clyde High School,School,Charter,41.290719,-82.987296
Conesville Elementary School,School,Charter,40.1881242,-81.8941735
Danville Elementary School,School,Charter,40.4482454,-82.2638465
East Elementary School,School,Charter,40.2747341,-81.6035918
Elyria High School,School,Charter,41.3619425,-82.109494
Western Reserve Middle School,School,Charter,41.0254832,-80.9130621
LaBrae Intermediate School,School,Charter,41.2540512,-80.8740381
Brookside High School,School,Charter,41.4690558,-82.0958582
Columbus Intermediate School,School,Charter,41.400992,-81.511835
Franklin Elementary School,School,Charter,40.782731,-81.506719
Carey Elementary School,School,Charter,40.9453476,-83.3872613
7088 Shadow Ridge Ct,Home,Single Family Residential,39.3774642,-84.4762294
5445 Sanctuary Pl #25,Home,Vacant Land,39.414926,-84.4175125
4706 Sanibel Ln,Home,Single Family Residential,39.4156327,-84.4574864
205 Michael Ave,Home,Single Family Residential,39.39003,-84.5364377
9477 Colegate Way,Home,Townhouse,39.3194853,-84.4612383
6127 Lovelace Dr,Home,Single Family Residential,39.40294,-84.5043165
5874 Laurel Run Dr,Home,Single Family Residential,39.4061115,-84.4250538
7189 Highpoint Blvd,Home,Single Family Residential,39.3742432,-84.4593111
4792 Osprey Pointe Dr,Home,Single Family Residential,39.4141399,-84.4570607
6251 Stagecoach Way,Home,Single Family Residential,39.394175,-84.445275
5899 Megan Dr,Home,Single Family Residential,39.4069441,-84.4678394
7006 Hearthwood Dr,Home,Single Family Residential,39.3847656,-84.5020015
5819 Happy Ln,Home,Single Family Residential,39.4080729,-84.4633337
4645 Stonehaven Dr,Home,Single Family Residential,39.3842561,-84.4643954
5350 Mariners Way,Home,Single Family Residential,39.4166507,-84.4629274
6199 Chablis Dr,Home,Single Family Residential,39.3992486,-84.4710987
4720 Winter Park Dr,Home,Single Family Residential,39.404091,-84.454788
4335 Shandon Dr,Home,Single Family Residential,39.4003438,-84.4737633
1809 Morey Ave,Home,Single Family Residential,39.4074206,-84.5347718
325 Fair Ave,Home,Single Family Residential,39.399415,-84.541223
3883 Excalibur Ln,Home,Single Family Residential,39.3807714,-84.4883964
6426 Kingsley Ct,Home,Single Family Residential,39.3945874,-84.4681469
5802 Franklin Trl,Home,Single Family Residential,39.4081297,-84.4317497
8698 Osage Dr,Home,Single Family Residential,39.3921044,-84.5273584
1312 Grand Blvd,Home,Single Family Residential,39.38229,-84.55033
8691 Osage Dr,Home,Single Family Residential,39.3921044,-84.5273584
8690 Osage Dr,Home,Single Family Residential,39.3921044,-84.5273584
8703 Osage Dr,Home,Single Family Residential,39.3921044,-84.5273584
4660 Happy Ln,Home,Single Family Residential,39.4081153,-84.4633754
730 Ludlow St,Home,Single Family Residential,39.3951254,-84.5547959
5235 Snow Valley Ln,Home,Single Family Residential,39.4218679,-84.4477672
3850 Dust Commander Dr,Home,Single Family Residential,39.3716805,-84.4917797
7169 Brightwaters Ct,Home,Single Family Residential,39.3743055,-84.4238111
3151 Hamilton Eaton Rd,Home,Single Family Residential,39.46802,-84.54464
5770 Horseshoe Bend Rd,Home,Single Family Residential,39.4181092,-84.4679829
5986 Sebring Ct,Home,Single Family Residential,39.4048716,-84.4582696
6234 Zilpha Ct,Home,Single Family Residential,39.403655,-84.5122033
4067 Fairfield Falls Ct,Home,Single Family Residential,39.4257275,-84.4780744
5942 Franklin Trl,Home,Single Family Residential,39.4042508,-84.4321536
4397 Hidden Oaks Ln,Home,Single Family Residential,39.377561,-84.4713741
7053 Valley Falls Ct,Home,Single Family Residential,39.3770543,-84.448813
7141 High Saddle Ct,Home,Single Family Residential,39.3743724,-84.4467624
2225 Grand Blvd,Home,Multi-Family (2-4 Unit),39.3810933,-84.5389487
5290 Mariners Way,Home,Single Family Residential,39.4156062,-84.4641397
3208 Tolbert Rd,Home,Single Family Residential,39.5240264,-84.5457048
1161 Kahn Ave,Home,Single Family Residential,39.3849292,-84.54343
5303 Woodview Way Unit AT-9,Home,Single Family Residential,39.4216168,-84.4400786
5779 Chancery Pl,Home,Single Family Residential,39.3771754,-84.4289395
206 Highland Ave,Home,Single Family Residential,39.4286583,-84.5375306
6411 Lakerun Ct,Home,Single Family Residential,39.3947703,-84.4967156
4665 Happy Ln,Home,Single Family Residential,39.4081153,-84.4633754
5915 Tilbury Trl,Home,Single Family Residential,39.4050186,-84.444205
4770 Links Ln,Home,Single Family Residential,39.4275468,-84.4568713
5370 Mariners Way,Home,Single Family Residential,39.4168961,-84.4623978
5527 Trails Run Ct,Home,Single Family Residential,39.3932188,-84.4356058
5604 Lesourdsville West Chester Rd,Home,Single Family Residential,39.4124067,-84.4351135
7340 Dixon Dr,Home,Single Family Residential,39.3746212,-84.4958141
325 N Eastview Pkwy,Home,Single Family Residential,39.4052971,-84.5311504
5743 Watoga Dr #123,Home,Single Family Residential,39.406233,-84.424147
5292 River Ridge Dr,Home,Single Family Residential,39.4256204,-84.4791607
5803 Watoga Dr #122,Home,Single Family Residential,39.406233,-84.424147
5791 Catawba Ct,Home,Single Family Residential,39.4101225,-84.4246729
5839 Happy Ln,Home,Single Family Residential,39.4080259,-84.4632873
7122 Valley Falls Ct,Home,Single Family Residential,39.3753594,-84.4475622
5280 Mariners Way,Home,Single Family Residential,39.415426,-84.4643194
385 Charleton Ct,Home,Single Family Residential,39.3622738,-84.4986006
6739 Stillington Dr,Home,Single Family Residential,39.3838517,-84.4187027
435 N Fair Ave,Home,Single Family Residential,39.4007257,-84.5409833
4751 Springwood Ct,Home,Single Family Residential,39.4211146,-84.4548209
5416 Foxglove Dr,Home,Single Family Residential,39.4193337,-84.4867284
6471 Stagecoach Way,Home,Single Family Residential,39.3936006,-84.4411762
5467 Mystic Way,Home,Single Family Residential,39.417053,-84.464203
5946 Watoga Dr,Home,Single Family Residential,39.403711,-84.424828
7046 Clawson Ridge Ct,Home,Single Family Residential,39.377153,-84.4496128
822 Dayton St,Home,Single Family Residential,39.3995516,-84.5512233
35 Olinger Dr,Home,Single Family Residential,39.431452,-84.5423448
123 Hanover St,Home,Single Family Residential,39.3904203,-84.5674418
1223 Vanderveer Ave,Home,Single Family Residential,39.3957167,-84.5466568
5131 Alpine Ct,Home,Single Family Residential,39.4220618,-84.4452739
5623 Watoga Dr #125,Home,Single Family Residential,39.406233,-84.424147
5369 Aspen Valley Dr,Home,Single Family Residential,39.4183969,-84.442246
9542 High Line Pl,Home,Townhouse,39.317403,-84.457271
5683 Watoga Dr #124,Home,Single Family Residential,39.406233,-84.424147
4843 Peak Dr,Home,Single Family Residential,39.376542,-84.4579784
5556 Sugar Maple Run,Home,Single Family Residential,39.4139366,-84.4439119
2640 Hamilton Mason Rd,Home,Single Family Residential,39.3811589,-84.5334614
5325 Stony Run Ct,Home,Single Family Residential,39.398801,-84.441602
4732 Osprey Pointe Dr,Home,Single Family Residential,39.4142418,-84.459197
495 Northlake Ct Unit CH495,Home,Single Family Residential,39.403252,-84.448677
7041 Valley Falls Ct,Home,Single Family Residential,39.3772966,-84.448813
9545 High Line Pl,Home,Townhouse,39.318176,-84.457589
117 Fox Ave,Home,Single Family Residential,39.437287,-84.536543
4212 Stone Meadow Dr,Home,Single Family Residential,39.3919648,-84.4771043
17 Watoga Dr Unit SR-17,Home,Single Family Residential,39.414391,-84.429138
6321 Chablis Dr,Home,Single Family Residential,39.3962587,-84.4727385
143 Linda Ln,Home,Single Family Residential,39.391501,-84.5404329
1899 Kahn Ave,Home,Vacant Land,39.3767115,-84.544323
1849 Parkamo Ave,Home,Single Family Residential,39.3771665,-84.5407889
6490 Walnut Point Way Unit CH418,Home,Single Family Residential,39.424297,-84.448334
4435 Watoga Dr,Home,Single Family Residential,39.417016,-84.428902
5333 Woodview Way,Home,Single Family Residential,39.4211492,-84.4388311
14 Elliott Ave,Home,Single Family Residential,39.4367187,-84.5394945
132 Elliott Ave,Home,Single Family Residential,39.4367376,-84.5361834
1811 Grand Blvd,Home,Single Family Residential,39.3814658,-84.5443127
5164 Augspurger Rd,Home,Multi-Family (2-4 Unit),39.4343818,-84.4835601
4880 Imperial Dr,Home,Single Family Residential,39.3895333,-84.4560922
4541 Trenton Oxford Rd,Home,Vacant Land,39.480962,-84.504126
4518 Mogul Ln,Home,Single Family Residential,39.3996612,-84.4670399
6009 Winding Creek Blvd,Home,Single Family Residential,39.4025847,-84.4373286
6154 Trotters Way,Home,Single Family Residential,39.3960134,-84.4467502
6468 Holly Ln,Home,Single Family Residential,39.3974727,-84.5091662
6796 Stillington Dr,Home,Single Family Residential,39.3827866,-84.4204876
5485 Foxglove Dr,Home,Single Family Residential,39.4176351,-84.4875097
5535 Foxglove Dr,Home,Single Family Residential,39.4164082,-84.4876949
2820 Wexford Way,Home,Townhouse,39.3911028,-84.531127
1811 Tolbert Rd,Home,Single Family Residential,39.518251,-84.589591
38 Alta Ct Unit AT38B,Home,Single Family Residential,39.423611,-84.44902
359 Hanover St,Home,Single Family Residential,39.3900743,-84.5608929
5196 Providence Ridge Dr,Home,Single Family Residential,39.3770452,-84.4469265
4171 Trenton Rd,Home,Multi-Family (2-4 Unit),39.450115,-84.515205
6524 Stonelake Way,Home,Single Family Residential,39.392598,-84.5024318
3724 Roy Rogers Dr,Home,Vacant Land,39.485848,-84.5291699
6188 Carriage Oak Way,Home,Single Family Residential,39.3969068,-84.4385227
5441 Whispering Brook Ct,Home,Single Family Residential,39.400598,-84.437985
30 Alta Ct Unit AT30B,Home,Single Family Residential,39.423592,-84.448814
0 Walnut Creek Dr,Home,Vacant Land,39.37939,-84.452649
201 Howman Ave,Home,Single Family Residential,39.4293195,-84.5388806
741 Dayton St,Home,Multi-Family (5+ Unit),39.399322,-84.552397
4583 Longwood Ct,Home,Single Family Residential,39.3758628,-84.4661994
4565 Osprey Pointe Dr,Home,Single Family Residential,39.4145943,-84.464374
5131 Winners Circle Dr #466,Home,Single Family Residential,39.39468,-84.446273
9568 Conservancy Pl,Home,Townhouse,39.3172423,-84.4564708
4455 Longwood Ct,Home,Single Family Residential,39.3760802,-84.4708051
1141 S Eleventh St,Home,Single Family Residential,39.3827267,-84.5529207
2520 Grand Blvd,Home,Single Family Residential,39.3816587,-84.5372289
2514 Grand Blvd,Home,Single Family Residential,39.381532,-84.5373259
991 Shuler Ave,Home,Single Family Residential,39.387487,-84.5444349
934 East Ave,Home,Vacant Land,39.38582,-84.553214
1932 John St,Home,Single Family Residential,39.4400073,-84.5276073
37 Alta Ct Unit AT37B,Home,Single Family Residential,39.423595,-84.448792
6400 Stagecoach Way,Home,Single Family Residential,39.3925696,-84.443109
410 Walnut Point Way Unit CH410,Home,Single Family Residential,39.39045,-84.444641
101 Main St,Home,Multi-Family (2-4 Unit),39.478733,-84.552002
4410 Watoga Dr Unit SR-6,Home,Single Family Residential,39.4146194,-84.4291551
4350 Watoga Dr Unit SR-1,Home,Single Family Residential,39.4146194,-84.4291551
6019 Winding Creek Blvd,Home,Single Family Residential,39.4021818,-84.4372621
6287 Breeders Cup Dr #459,Home,Single Family Residential,39.39468,-84.446273
337 Village St,Home,Multi-Family (2-4 Unit),39.4033327,-84.5571248
143 Howman Ave,Home,Single Family Residential,39.4303396,-84.5383507
5725 Bassett Trl #30,Home,Single Family Residential,39.4047973,-84.4275959
5273 Stallion Ct Unit CH332,Home,Single Family Residential,39.3909157,-84.442446
111 Watoga Dr,Home,Single Family Residential,39.412255,-84.42827
129 Watoga Dr,Home,Single Family Residential,39.412255,-84.42827
0 S Front St,Home,Vacant Land,39.392485,-84.566941
145 Pershing Ave,Home,Single Family Residential,39.3937066,-84.5651907
4712 Osprey Pointe Dr,Home,Single Family Residential,39.4142199,-84.4596986
4775 Osprey Pointe Dr,Home,Single Family Residential,39.4135785,-84.4575316
9549 Highline Pl,Home,Townhouse,39.38587,-84.44777
928 Dayton St,Home,Multi-Family (2-4 Unit),39.3990775,-84.5496768
6393 Tara Brooke Ct,Home,Single Family Residential,39.3960933,-84.4926791
9539 Highline Pl,Home,Townhouse,39.318117,-84.456915
6755 Ashe Knl,Home,Single Family Residential,39.382631,-84.42174
4395 Watoga Dr,Home,Single Family Residential,39.416634,-84.432337
5522 Woodmansee Way,Home,Single Family Residential,39.4154568,-84.4419432
5330 Mariners Way,Home,Single Family Residential,39.4163557,-84.4633982
5436 Mystic Way,Home,Single Family Residential,39.416356,-84.463398
5954 Tilbury Trl,Home,Single Family Residential,39.4036444,-84.4438342
5925 Tilbury Trl,Home,Single Family Residential,39.4047379,-84.4442314
5710 Bassett Trl #33,Home,Single Family Residential,39.4053386,-84.4281682
2853 Cedar Grove Ct,Home,Vacant Land,39.461358,-84.5457009
4202 Logsdons Woods Dr Unit LW-87,Home,Single Family Residential,39.378086,-84.477902
224 Augspurger Ave,Home,Multi-Family (2-4 Unit),39.432818,-84.536576
3849 John Wayne Dr,Home,Vacant Land,39.482905,-84.524612
4913 Rialto Rd,Home,Vacant Land,39.323374,-84.4605909
8323 Foxglove Dr,Home,Single Family Residential,39.418113,-84.4871589
6944 Creekside Way #7976,Home,Vacant Land,39.398258,-84.517707
41 N Seventh St,Home,Multi-Family (2-4 Unit),39.3986031,-84.5542895
5409 Rentschler Estates Dr,Home,Single Family Residential,39.419418,-84.4886609
65 Sugar Berry Knl,Home,Single Family Residential,39.381153,-84.422534
3797 Roy Rogers Dr,Home,Vacant Land,39.486389,-84.523028
3664 Jimmy Stewart Dr,Home,Vacant Land,39.481859,-84.523461
3847 Roy Rogers Dr,Home,Vacant Land,39.4848659,-84.5246839
3757 Roy Rogers Dr,Home,Vacant Land,39.484793,-84.527966
3879 John Wayne Dr,Home,Vacant Land,39.4829269,-84.523317
3667 Jimmy Stewart Dr #2,Home,Vacant Land,39.481843,-84.5244
3909 John Wayne Dr,Home,Vacant Land,39.482944,-84.522229
6109 Creekside Way,Home,Single Family Residential,39.4034825,-84.5059759
6612 Springmeadow Dr,Home,Single Family Residential,39.3893731,-84.4841749
5114 Princeton Glendale Rd,Home,Single Family Residential,39.425879,-84.449352
5710 Bassett Trl,Home,Single Family Residential,39.4053386,-84.4281682
5120 Sleigh Ct,Home,Single Family Residential,39.39468,-84.446273
Thorton,Home,Single Family Residential,39.403037,-84.423773
Serenity,Home,Single Family Residential,39.403037,-84.423773
Ryder,Home,Single Family Residential,39.4030366,-84.4237729
Nicholas,Home,Single Family Residential,39.403037,-84.423773
Morrison,Home,Single Family Residential,39.4030366,-84.4237729
Monroe,Home,Single Family Residential,39.4030366,-84.4237729
Keating,Home,Single Family Residential,39.403037,-84.423773
Cheswicke,Home,Single Family Residential,39.4030366,-84.4237729
Dillon,Home,Single Family Residential,39.4030366,-84.4237729
Fairview,Home,Single Family Residential,39.4030366,-84.4237729
Normandy,Home,Single Family Residential,39.4042409,-84.4545201
Roanoke,Home,Single Family Residential,39.4042409,-84.4545201
Adrian,Home,Single Family Residential,39.4003299,-84.5292836
Powell,Home,Single Family Residential,39.4042409,-84.4545201
Bethany,Home,Single Family Residential,39.4030366,-84.4237729
Ainsley II,Home,Single Family Residential,39.403037,-84.423773
Beachwood,Home,Single Family Residential,39.4163557,-84.4633982
Adams,Home,Single Family Residential,39.396743,-84.450066
Lyndhurst,Home,Single Family Residential,39.417016,-84.428902
Hollister,Home,Single Family Residential,39.417016,-84.428902
Bethany,Home,Single Family Residential,39.3949921,-84.4462229
Ellsworth,Home,Single Family Residential,39.3949921,-84.4462229
Allegheny,Home,Single Family Residential,39.4003299,-84.5292836
Aviano,Home,Single Family Residential,39.4003299,-84.5292836
Ballenger,Home,Single Family Residential,39.4003299,-84.5292836
Oasis,Home,Single Family Residential,39.403037,-84.423773
Walden Classic,Home,Single Family Residential,39.3949921,-84.4462229
Nicholas,Home,Single Family Residential,39.3949921,-84.4462229
Monroe,Home,Single Family Residential,39.3949921,-84.4462229
Keating,Home,Single Family Residential,39.3949921,-84.4462229
Ainsley II,Home,Single Family Residential,39.3949921,-84.4462229
Thorton,Home,Single Family Residential,39.3949921,-84.4462229
Serenity,Home,Single Family Residential,39.3949921,-84.4462229
Placid,Home,Single Family Residential,39.3949921,-84.4462229
Oasis,Home,Single Family Residential,39.3949921,-84.4462229
Clayton,Home,Single Family Residential,39.3949921,-84.4462229
Vanderburgh,Home,Single Family Residential,39.417016,-84.428902
Cheswicke,Home,Single Family Residential,39.3949921,-84.4462229
Carolina Place,Home,Single Family Residential,39.4042409,-84.4545201
Rowan,Home,Single Family Residential,39.417016,-84.428902
Hartwell,Home,Single Family Residential,39.417016,-84.428902
Barrett,Home,Single Family Residential,39.403037,-84.423773
Buchanan,Home,Single Family Residential,39.417016,-84.428902
Ash Lawn,Home,Single Family Residential,39.417016,-84.428902
Bennett,Home,Single Family Residential,39.417016,-84.428902
Alden,Home,Single Family Residential,39.417016,-84.428902
Tolbert,Home,Single Family Residential,39.403037,-84.423773
Heatherwood,Home,Single Family Residential,39.3960134,-84.4467502
Beechwood,Home,Single Family Residential,39.3960134,-84.4467502
Camargo,Home,Single Family Residential,39.3960134,-84.4467502
Coldstream,Home,Single Family Residential,39.3960134,-84.4467502
Medinah,Home,Single Family Residential,39.3960134,-84.4467502
Rubicon,Home,Single Family Residential,39.3960134,-84.4467502
5150 Neff Rd,Home,Single Family Residential,39.865746,-83.144966
4696 Windrow Dr,Home,Single Family Residential,39.8682613,-83.0882683
2739 Yates Ave,Home,Single Family Residential,39.8935597,-83.0750403
3232 Parkview Cir,Home,Condo/Co-op,39.8974273,-83.0640444
2436 Holton Rd,Home,Single Family Residential,39.8558915,-83.0649761
5748 Buckeye Pkwy,Home,Single Family Residential,39.8447028,-83.0524775
2600 Scott Ct,Home,Single Family Residential,39.8922298,-83.071518
1966 Westbranch Rd,Home,Single Family Residential,39.9018342,-83.0470243
2728 Dennis Ln,Home,Single Family Residential,39.8864541,-83.075208
1727 Rock Creek Dr,Home,Single Family Residential,39.9079092,-83.0414628
2172 Maribeth Pl,Home,Single Family Residential,39.9108826,-83.0733211
4992 Wadkins Dr,Home,Single Family Residential,39.8610149,-83.0631124
3292 Tam Oshanter Pl,Home,Single Family Residential,39.8828883,-83.159226
0 W 1st Ave,Home,Vacant Land,39.89992,-83.08979
6029 Goldstone Dr,Home,Single Family Residential,39.8384321,-83.0461823
4334 Robin St,Home,Single Family Residential,39.8759403,-83.0946612
3698 Park St,Home,Single Family Residential,39.8860949,-83.1008544
1978 Bald Eagle Dr,Home,Single Family Residential,39.8633784,-83.0570913
3563 Pin Oak Ct,Home,Single Family Residential,39.8926133,-83.1094568
5921 Goldstone Dr,Home,Single Family Residential,39.8407971,-83.0458039
1110 Carnoustie Cir,Home,Single Family Residential,39.8661568,-83.0420741
1652 Epic Way,Home,Condo/Co-op,39.8751536,-83.0471984
5094 Winter Creek Dr,Home,Single Family Residential,39.8583714,-83.0562944
410 Scioto Meadows Blvd,Home,Single Family Residential,39.8332343,-83.0227313
0 Arbutus Ave,Home,Vacant Land,39.882164,-83.091063
2075 Winding Hollow Dr,Home,Single Family Residential,39.9119105,-83.0935503
3626 4th Ave,Home,Single Family Residential,39.8969364,-83.0880796
5212 Bradstone Loop,Home,Single Family Residential,39.862948,-83.094747
1713 Silverlawn Dr,Home,Single Family Residential,39.8814519,-83.0929644
1978 Brown Rd,Home,Single Family Residential,39.9152871,-83.034816
4277 Shortleaf Ln,Home,Single Family Residential,39.9008675,-83.1111331
2450 Mccomb Rd,Home,Single Family Residential,39.9047084,-83.064305
1036 Pinnacle Club Dr,Home,Single Family Residential,39.8623274,-83.0315852
1240 Great Hunter Dr,Home,Single Family Residential,39.8284333,-83.040375
4249 Tigertail Ln,Home,Condo/Co-op,39.9002093,-83.1104836
1934 Sunridge Dr,Home,Single Family Residential,39.8599872,-83.0555604
4633 Pebble Beach Dr,Home,Single Family Residential,39.8671121,-83.0560008
4372 Club Trail Ln Unit 54-437,Home,Condo/Co-op,39.8726035,-83.0470804
4369 Knoll Crest Dr,Home,Single Family Residential,39.9053906,-83.1159524
1562 Pinnacle Club Dr,Home,Single Family Residential,39.8618883,-83.0459126
1654 Otter Ct,Home,Single Family Residential,39.8339801,-83.050464
4974 Jackson Pike,Home,Single Family Residential,39.860949,-83.023554
2623 Gardenview Loop,Home,Condo/Co-op,39.8645246,-83.0734967
4533 Dungannon Dr,Home,Single Family Residential,39.9101945,-83.1165914
1219 Windcliff Ct,Home,Single Family Residential,39.8282016,-83.039515
2410 Rosecrest St,Home,Single Family Residential,39.9032651,-83.1144857
4443 Demorest Rd #50,Home,Single Family Residential,39.8771036,-83.104842
1875 White Rd,Home,Single Family Residential,39.8718535,-83.0533793
2149 Tournament Way,Home,Single Family Residential,39.8645743,-83.0610338
3299 Columbus St,Home,Single Family Residential,39.8823127,-83.0908884
2596 Gardenview Loop,Home,Condo/Co-op,39.864527,-83.073517
1984 Sunny Rock Ln,Home,Single Family Residential,39.8624935,-83.0570074
5932 Blue Star Dr,Home,Single Family Residential,39.8486443,-83.0522065
6673 Johnson Rd,Home,Single Family Residential,39.8913842,-83.1704062
4549 Rishel St #73,Home,Single Family Residential,39.8770993,-83.1036899
2826 Crosshurst Ct,Home,Single Family Residential,39.8629469,-83.0796316
5011 Winter Creek Dr,Home,Single Family Residential,39.8601426,-83.0568187
2001 Jacinth Ct,Home,Single Family Residential,39.9125235,-83.1028348
7385 Ruoff Dr,Home,Single Family Residential,39.8695993,-83.1848079
6244 London Groveport Rd Lot 4,Home,Single Family Residential,39.852856,-83.167276
0 Holt Rd,Home,Vacant Land,39.906747,-83.120355
2590 Holton Rd,Home,Single Family Residential,39.8559295,-83.0669471
4459 Newport Loop E,Home,Condo/Co-op,39.8704306,-83.0458451
1201 Mcclish Ct,Home,Single Family Residential,39.859342,-83.036473
4348 Club Trail Ln,Home,Condo/Co-op,39.8730852,-83.0469361
3385 Tareyton Dr,Home,Single Family Residential,39.894325,-83.0677858
1744 Pinnacle Club Dr,Home,Single Family Residential,39.863189,-83.050213
4848 Adwell Loop,Home,Single Family Residential,39.865077,-83.0871783
1770 Hawthorne,Home,Single Family Residential,39.8349539,-83.0533583
1730 Pinnacle Club Dr,Home,Single Family Residential,39.862976,-83.049981
2534 Hickory Pine Ln,Home,Single Family Residential,39.9009252,-83.1094149
1411 Scotsman Dr,Home,Single Family Residential,39.861398,-83.0413574
1618 Pinnacle Club Dr,Home,Single Family Residential,39.8619789,-83.0474228
4694 Goodman St,Home,Single Family Residential,39.8669529,-83.0623549
0 Hoover Rd,Home,Vacant Land,39.900984,-83.068466
2630 Gardenview Loop,Home,Condo/Co-op,39.864766,-83.073283
3340 1st Ave,Home,Vacant Land,39.899568,-83.081084
2459 Alkire Rd,Home,Single Family Residential,39.9151796,-83.068331
2126 English Turn Dr,Home,Single Family Residential,39.8655439,-83.0605305
2434 Chinquo St,Home,Single Family Residential,39.9038355,-83.0690858
2648 Brown Rd,Home,Vacant Land,39.902902,-83.03476
4463 Newport Loop E,Home,Condo/Co-op,39.8704136,-83.0458559
3466 Artberry Way,Home,Condo/Co-op,39.866478,-83.098283
5248 Norton Rd,Home,Vacant Land,39.856264,-83.174367
0 Grove City Rd,Home,Vacant Land,39.874852,-83.148573
1135 Pinnacle Club Dr,Home,Vacant Land,39.8617757,-83.0344487
1147 Pinnacle Club Dr,Home,Single Family Residential,39.861833,-83.034762
4572 Hirth Hill Rd E,Home,Single Family Residential,39.863444,-83.046527
4499 Rishel St #69,Home,Single Family Residential,39.8770993,-83.1036899
6244 London Groveport Rd Unit Sandy 9,Home,Single Family Residential,39.852856,-83.167276
0 Casa Blvd,Home,Vacant Land,39.871821,-83.096531
2594 N Broadway,Home,Vacant Land,39.8978498,-83.0805105
2679 Loris Way,Home,Single Family Residential,39.8618416,-83.075858
4900 Lambert Rd Unit R,Home,Single Family Residential,39.865564,-83.156882
1667 Hartig Dr,Home,Single Family Residential,39.8625992,-83.0484296
2477 Charlemagne St,Home,Single Family Residential,39.9046877,-83.0706374
2456 Harrisburg Pike,Home,Unknown,39.9076766,-83.072168
,Home,Multi-Family (2-4 Unit),39.9081848,-83.0716438
926 Pinnacle Club Dr,Home,Condo/Co-op,39.8614111,-83.0288928
2476 Harrisburg Pike,Home,Unknown,39.9075295,-83.0724901
1209 Stringtown Rd,Home,Single Family Residential,39.874844,-83.029539
Lot 372 Westbranch Rd,Home,Vacant Land,39.901845,-83.047128
6916 Cedar Dr,Home,Vacant Land,39.850889,-83.1840464
1569 Hartig,Home,Vacant Land,39.8627098,-83.0464089
6588 Seeds Rd,Home,Vacant Land,39.828496,-83.087547
5800 Harrisburg Pike,Home,Vacant Land,39.846453,-83.186921
3735 Grove City Rd,Home,Vacant Land,39.881251,-83.102289
6028 Platinum Dr,Home,Vacant Land,39.838685,-83.046572
2356 Vine St,Home,Vacant Land,39.8956023,-83.0878163
0 Harrisburg Pike,Home,Vacant Land,39.8715937,-83.1020551
4987 Adwell Loop,Home,Single Family Residential,39.8629736,-83.0884569
6244 London Groveport Rd Lot 3,Home,Mobile/Manufactured Home,39.852856,-83.167276
4549 Rishel St,Home,Single Family Residential,39.872402,-83.108143
4581 Demorest Rd,Home,Single Family Residential,39.8724038,-83.1081366
Mayberry,Home,Single Family Residential,39.872402,-83.108144
Ellington,Home,Single Family Residential,39.872402,-83.108144
Knoxville,Home,Single Family Residential,39.872402,-83.108144
Carlisle,Home,Single Family Residential,39.872402,-83.108144
Newcastle,Home,Single Family Residential,39.872402,-83.108144
Somerset,Home,Single Family Residential,39.872402,-83.108144
Athens,Home,Single Family Residential,39.872402,-83.108144
Stratford,Home,Single Family Residential,39.872402,-83.108144
Wilmington,Home,Single Family Residential,39.872402,-83.108144
Westport,Home,Single Family Residential,39.872402,-83.108144
Polk,Home,Single Family Residential,39.872402,-83.108144
Newbury,Home,Single Family Residential,39.872402,-83.108144
Birmingham,Home,Single Family Residential,39.872402,-83.108144
Jordan,Home,Single Family Residential,39.872402,-83.108144
Columbus,Home,Single Family Residential,39.872402,-83.108144
Kennedy,Home,Single Family Residential,39.872402,-83.108144
Truman,Home,Single Family Residential,39.872402,-83.108144
Ford,Home,Single Family Residential,39.872402,-83.108144
38579 E River Rd,Home,Single Family Residential,41.3335429,-82.0708131
216 Spruce St,Home,Single Family Residential,41.379376,-82.1288816
939 Lake Ave,Home,Townhouse,41.380829,-82.123994
41822 Edison Ct,Home,Single Family Residential,41.3889819,-82.1327929
736 W River Rd N,Home,Single Family Residential,41.3760656,-82.1135318
432 Michigan Ave,Home,Single Family Residential,41.3525959,-82.0897565
857 Wilder Ave,Home,Single Family Residential,41.3954952,-82.073675
126 Villanova Cir,Home,Single Family Residential,41.4148536,-82.0803123
427 Louisiana Ave,Home,Single Family Residential,41.3823501,-82.1158068
10583 Indian Hollow Rd,Home,Single Family Residential,41.3352318,-82.0897565
130 Taft Ave,Home,Single Family Residential,41.3775091,-82.1130215
8951 W Ridge Rd Unit D,Home,Condo/Co-op,41.36059,-82.156367
141 Fuller Rd,Home,Single Family Residential,41.3468205,-82.0969027
1035 Gulf Rd,Home,Single Family Residential,41.392721,-82.09027
9420 W Ridge Rd,Home,Single Family Residential,41.353624,-82.156829
426 University Ave,Home,Single Family Residential,41.3544723,-82.0904371
117 Blaine St,Home,Townhouse,41.364346,-82.102204
715 Clark St,Home,Single Family Residential,41.3685003,-82.0830563
721 W River Rd N,Home,Townhouse,41.3751209,-82.1128089
703 E Broad St,Home,Single Family Residential,41.3655059,-82.0836519
210 W Bridge St,Home,Single Family Residential,41.368653,-82.115329
315 Park Ave,Home,Single Family Residential,41.3652286,-82.0951588
417 Pemberton Dr,Home,Single Family Residential,41.341071,-82.077101
7036 Manor Dr,Home,Single Family Residential,41.3974438,-82.1487123
444 Loyola Dr,Home,Single Family Residential,41.415544,-82.084948
230 Marseilles Ave,Home,Single Family Residential,41.3788901,-82.0827798
247 Ohio St,Home,Single Family Residential,41.3749598,-82.1014112
941 Livermore Ln,Home,Single Family Residential,41.3963874,-82.0695583
6277 Lake Ave,Home,Single Family Residential,41.4126916,-82.1433354
9945 W Ridge Rd,Home,Single Family Residential,41.3465819,-82.1547264
553 Fairmount Ave,Home,Single Family Residential,41.3804173,-82.1100447
140 Miami Ave,Home,Single Family Residential,41.3580115,-82.0983063
114 Lindsay Ct,Home,Single Family Residential,41.3451082,-82.0844815
306 Beebe Ave,Home,Single Family Residential,41.3816929,-82.0816737
38932 Butternut Ridge Rd,Home,Single Family Residential,41.3269638,-82.077717
638 Harvard Ave,Home,Single Family Residential,41.3624184,-82.0843113
6234 Elyria Ave,Home,Single Family Residential,41.4136823,-82.1430379
1225 West Ave,Home,Vacant Land,41.3542092,-82.1109378
382 Abbe Rd N,Home,Single Family Residential,41.3840801,-82.0779297
536 Princeton Ave,Home,Single Family Residential,41.3643546,-82.0869914
211 Beebe Ave,Home,Single Family Residential,41.3800236,-82.0811632
307 Olive St,Home,Single Family Residential,41.3782666,-82.0855876
330 Bon Air Ave,Home,Single Family Residential,41.3824224,-82.0766002
214 Cornell Ave,Home,Single Family Residential,41.3614296,-82.0970728
564 Wesley Ave,Home,Single Family Residential,41.3896555,-82.0752918
216 Clinton Ave,Home,Single Family Residential,41.3840005,-82.1219937
229 Northfield Dr,Home,Single Family Residential,41.40273,-82.079731
467 Olivet Dr,Home,Single Family Residential,41.389082,-82.084587
42985 Telegraph,Home,Single Family Residential,41.3749802,-82.1570426
612 Songbird St,Home,Single Family Residential,41.3399139,-82.0746536
125 Fairfield Dr,Home,Single Family Residential,41.364655,-82.1665617
43293 Cooper Foster Park Rd,Home,Single Family Residential,41.3683798,-82.1076486
185 Morgan Ave,Home,Single Family Residential,41.3863099,-82.1249917
82 Fowl Rd,Home,Single Family Residential,41.3606976,-82.165525
943 Gulf,Home,Single Family Residential,41.3865028,-82.0938827
620 Nelson St,Home,Single Family Residential,41.345885,-82.1050902
301 Gull,Home,Single Family Residential,41.393529,-82.1246364
854 Hollywood Blvd,Home,Single Family Residential,41.4008368,-82.0727389
437 Adams St,Home,Single Family Residential,41.3798388,-82.1211646
321 E River St,Home,Single Family Residential,41.3712401,-82.0988167
1215 W River Rd N Unit B-3,Home,Condo/Co-op,41.390714,-82.103413
255 Brunswick Dr,Home,Townhouse,41.3655178,-82.1552576
259 Brunswick Dr,Home,Townhouse,41.3657572,-82.1553426
1900 Grafton Rd,Home,Single Family Residential,41.3388459,-82.0885229
174 Bell Ave,Home,Single Family Residential,41.3848516,-82.1247575
Fowl Rd,Home,Vacant Land,41.355729,-82.166296
414 Alexis Dr,Home,Single Family Residential,41.3390483,-82.0790359
157 Westminster Way,Home,Single Family Residential,41.3511137,-82.0583524
1310-12 West Ave,Home,Townhouse,41.3536287,-82.1104069
153 Westminster Way,Home,Single Family Residential,41.3509628,-82.0583542
213 Ohio St,Home,Single Family Residential,41.374885,-82.102914
402 Pin Oak Cir,Home,Single Family Residential,41.3562451,-82.1521922
Albrecht Rd,Home,Vacant Land,41.353769,-82.18516
1175 E River St,Home,Single Family Residential,41.3543296,-82.1000247
1618 Lake Ave,Home,Single Family Residential,41.3880504,-82.129987
194 Brace Ave,Home,Single Family Residential,41.3876284,-82.12497
240 8th St,Home,Townhouse,41.359622,-82.1060152
203 Gerhart Ln,Home,Single Family Residential,41.4165899,-82.0980061
121 Haydens Arbor,Home,Single Family Residential,41.4173581,-82.0977621
115 Haydens Arbor,Home,Single Family Residential,41.4172239,-82.0978261
179 Haydens Arbor,Home,Single Family Residential,41.4177653,-82.095929
1143 E River St,Home,Single Family Residential,41.3555323,-82.1001778
42230 Griswold Rd,Home,Single Family Residential,41.4005236,-82.1405724
1142 Bell Ct,Home,Single Family Residential,41.3848924,-82.1335794
751 University Ave,Home,Single Family Residential,41.352027,-82.0792486
715 Overbrook Rd,Home,Single Family Residential,41.3860674,-82.0949035
116 Longford Ave,Home,Single Family Residential,41.3765599,-82.083971
135 Fox Chase Dr,Home,Single Family Residential,41.3571909,-82.1519148
1222 Lake Ave,Home,Single Family Residential,41.3833954,-82.127351
6275 Lake Ave,Home,Single Family Residential,41.412745,-82.143548
578 Augdon Dr,Home,Single Family Residential,41.3901567,-82.0741005
131 Hamilton St,Home,Single Family Residential,41.3758021,-82.0927342
287 Kensington Way,Home,Single Family Residential,41.366967,-82.078953
305 Westcott Way,Home,Single Family Residential,41.3683798,-82.1076486
