SALE TYPE,SOLD DATE,PROPERTY TYPE,ADDRESS,CITY,STATE OR PROVINCE,ZIP OR POSTAL CODE,PRICE,BEDS,BATHS,LOCATION,SQUARE FEET,LOT SIZE,YEAR BUILT,DAYS ON MARKET,$/SQUARE FEET,HOA/MONTH,STATUS,NEXT OPEN HOUSE START TIME,NEXT OPEN HOUSE END TIME,URL (SEE http://www.redfin.com/buy-a-home/comparative-market-analysis FOR INFO ON PRICING),SOURCE,MLS#,FAVORITE,INTERESTED,LATITUDE,LONGITUDE
MLS Listing,,Condo/Co-op,541 Woodingham Pl Unit 2-C,Columbus,OH,43213,112500,3,2.5,,2468,871,1975,1,46,275,Active,,,http://www.redfin.com/OH/Columbus/541-Woodingham-Pl-43213/unit-2-C/home/100739187,CBRMLS,219027758,N,Y,39.9687137,-82.8334655
MLS Listing,,Condo/Co-op,646 Sycamore Turn Ln,Columbus,OH,43213,169900,2,2.0,,1322,2613,1999,1,129,260,Active,,,http://www.redfin.com/OH/Columbus/646-Sycamore-Turn-Ln-43213/home/79478058,CBRMLS,219027710,N,Y,39.9666866,-82.8385289
MLS Listing,,Single Family Residential,389 Wind Rush Ave,Columbus,OH,43213,279900,4,2.5,,2157,4356,2010,1,130,50,Active,,,http://www.redfin.com/OH/Columbus/389-Wind-Rush-Ave-43213/home/79708576,CBRMLS,219027681,N,Y,39.9880542,-82.8406912
MLS Listing,,Condo/Co-op,387 Daner Rd,Columbus,OH,43213,339900,4,3.0,,2037,6969,2005,1,167,81,Active,July-28-2019 02:00 PM,July-28-2019 04:00 PM,http://www.redfin.com/OH/Columbus/387-Daner-Rd-43213/home/100708528,CBRMLS,219027667,N,Y,39.972404,-82.834826
MLS Listing,,Single Family Residential,5701 Indian Mound Ct,Columbus,OH,43213,264899,4,3.5,,3002,21780,1968,1,88,,Active,July-28-2019 02:00 PM,July-28-2019 04:00 PM,http://www.redfin.com/OH/Columbus/5701-Indian-Mound-Ct-43213/home/75686406,CBRMLS,219027643,N,Y,39.9699462,-82.8479285
MLS Listing,,Single Family Residential,818 Martha Ln,Whitehall,OH,43213,109900,3,1.0,,910,9583,1954,2,121,,Active,,,http://www.redfin.com/OH/Columbus/818-Martha-Ln-43213/home/75702929,CBRMLS,219027388,N,Y,39.9600809,-82.8737155
MLS Listing,,Single Family Residential,421 Lemery Dr,Columbus,OH,43213,274900,4,2.5,,2237,4791,2013,2,123,50,Active,July-28-2019 01:00 PM,July-28-2019 03:00 PM,http://www.redfin.com/OH/Columbus/421-Lemery-Dr-43213/home/79506033,CBRMLS,219027389,N,Y,39.9876964,-82.8343924
MLS Listing,,Single Family Residential,4977 Dimson Dr N,Columbus,OH,43213,82900,3,1.0,,1054,7405,1952,2,79,,Active,,,http://www.redfin.com/OH/Whitehall/4977-Dimson-Dr-N-43213/home/75720955,CBRMLS,219027324,N,Y,39.9617531,-82.8652191
MLS Listing,,Single Family Residential,4094 Mayflower Blvd,Columbus,OH,43213,90000,3,1.5,,1170,6534,1959,4,77,,Active,,,http://www.redfin.com/OH/Columbus/4094-Mayflower-Blvd-43213/home/79565953,CBRMLS,219026990,N,Y,39.9680437,-82.8909154
MLS Listing,,Single Family Residential,338 Hoskins Way,Columbus,OH,43213,259900,3,2.5,,1860,4791,2006,5,140,50,Active,,,http://www.redfin.com/OH/Columbus/338-Hoskins-Way-43213/home/79637026,CBRMLS,219026927,N,Y,39.9869101,-82.8409016
MLS Listing,,Single Family Residential,6192 Stockton Trail Way,Columbus,OH,43213,279000,3,2.5,,1881,5662,2010,5,148,50,Active,,,http://www.redfin.com/OH/Columbus/6192-Stockton-Trail-Way-43213/home/79483376,CBRMLS,219026886,N,Y,39.9891027,-82.8382926
MLS Listing,,Single Family Residential,5690 Old Farm Ct,Columbus,OH,43213,259900,4,2.5,,2436,20908,1968,6,107,,Active,,,http://www.redfin.com/OH/Columbus/5690-Old-Farm-Ct-43213/home/79492291,CBRMLS,219026845,N,Y,39.9606591,-82.8465189
MLS Listing,,Single Family Residential,835 S Yearling Rd,Whitehall,OH,43213,85000,2,1.0,,795,9583,1948,7,107,,Active,,,http://www.redfin.com/OH/Columbus/835-S-Yearling-Rd-43213/home/100759371,CBRMLS,219026772,N,Y,39.9570773,-82.8865423
MLS Listing,,Single Family Residential,702 Pierce Ave,Whitehall,OH,43213,59900,1,1.0,,592,5227,1939,7,101,,Active,,,http://www.redfin.com/OH/Columbus/702-Pierce-Ave-43213/home/79547880,CBRMLS,219026665,N,Y,39.960185,-82.8825473
MLS Listing,,Single Family Residential,4148 Etna St,Whitehall,OH,43213,184900,4,2.0,,1792,10454,1958,8,103,,Active,,,http://www.redfin.com/OH/Columbus/4148-Etna-St-43213/home/75679822,CBRMLS,219026443,N,Y,39.9643242,-82.8891704
MLS Listing,,Single Family Residential,651 Pierce Ave,Whitehall,OH,43213,72900,2,1.0,,794,5662,1951,8,92,,Active,,,http://www.redfin.com/OH/Columbus/651-Pierce-Ave-43213/home/79663978,CBRMLS,219026425,N,Y,39.961187,-82.883093
MLS Listing,,Single Family Residential,834 Erickson Ave,Columbus,OH,43213,89900,3,1.5,,1372,5662,1934,9,66,,Active,,,http://www.redfin.com/OH/Columbus/834-Erickson-Ave-43213/home/79580118,CBRMLS,219026238,N,Y,39.9572364,-82.8839351
MLS Listing,,Condo/Co-op,611 Banningway Dr,Columbus,OH,43213,139900,3,2.5,,1640,871,1979,10,85,275,Active,,,http://www.redfin.com/OH/Columbus/611-Banningway-Dr-43213/unit-24-B/home/112985837,CBRMLS,219026114,N,Y,39.9675935,-82.8311552
MLS Listing,,Single Family Residential,5077 Greenwood Ct,Columbus,OH,43213,214900,3,2.5,,1855,12196,1976,11,116,,Active,,,http://www.redfin.com/OH/Columbus/5077-Greenwood-Ct-43213/home/100760168,CBRMLS,219025953,N,Y,39.9643113,-82.8630107
MLS Listing,,Single Family Residential,746 Pierce Ave,Columbus,OH,43213,169900,3,2.0,,1409,5662,1939,13,121,,Active,,,http://www.redfin.com/OH/Columbus/746-Pierce-Ave-43213/home/79605188,CBRMLS,219025753,N,Y,39.959245,-82.882703
MLS Listing,,Single Family Residential,271 Collingwood Ave,Whitehall,OH,43213,125000,3,1.0,,1189,40510,1926,17,105,,Active,,,http://www.redfin.com/OH/Columbus/271-Collingwood-Ave-43213/home/79531523,CBRMLS,219024968,N,Y,39.9676777,-82.8999131
MLS Listing,,Condo/Co-op,5689 Notre Dame Pl #7,Columbus,OH,43213,249900,3,2.5,,2883,2178,1981,20,87,594,Active,,,http://www.redfin.com/OH/Columbus/5689-Notre-Dame-Pl-43213/unit-7/home/75634438,CBRMLS,219024562,N,Y,39.973817,-82.8520964
MLS Listing,,Single Family Residential,4151 Virginia Cir E,Columbus,OH,43213,159999,3,1.5,,1374,16117,1955,25,116,,Active,,,http://www.redfin.com/OH/Whitehall/4151-Virginia-Cir-E-43213/home/79657957,CBRMLS,219023872,N,Y,39.9615177,-82.8886448
MLS Listing,,Single Family Residential,6315 Olde Orchard Dr,Columbus,OH,43213,319900,4,3.5,,4425,16552,1971,30,72,,Active,,,http://www.redfin.com/OH/Columbus/6315-Olde-Orchard-Dr-43213/home/75687265,CBRMLS,219023163,N,Y,39.9637257,-82.8302756
MLS Listing,,Single Family Residential,6204 Marias Point Ln,Columbus,OH,43213,279900,2,3.0,,2469,,2004,32,113,73,Active,July-28-2019 02:00 PM,July-28-2019 04:00 PM,http://www.redfin.com/OH/Columbus/6204-Marias-Point-Ln-43213/home/79671370,CBRMLS,219022782,N,Y,39.972774,-82.834749
MLS Listing,,Single Family Residential,6050 Mcnaughten Grove Ln,Columbus,OH,43213,259900,2,3.5,,2322,6098,2000,33,112,65,Active,,,http://www.redfin.com/OH/Columbus/6050-McNaughten-Grove-Ln-43213/home/100785329,CBRMLS,219022726,N,Y,39.970277,-82.842037
MLS Listing,,Single Family Residential,549 Beechwood Rd,Columbus,OH,43213,99000,3,1.0,,1224,8712,1954,42,81,,Active,,,http://www.redfin.com/OH/Columbus/549-Beechwood-Rd-43213/home/75608999,CBRMLS,219021490,N,Y,39.9622795,-82.8939008
MLS Listing,,Single Family Residential,561 Elizabeth Ave,Columbus,OH,43213,194900,4,1.5,,2808,10890,1900,45,69,,Active,,,http://www.redfin.com/OH/Columbus/561-Elizabeth-Ave-43213/home/79603646,CBRMLS,219020780,N,Y,39.9602635,-82.91181
MLS Listing,,Single Family Residential,5970 Forestview Dr,Columbus,OH,43213,299000,3,2.5,,1848,20908,1966,45,162,,Active,,,http://www.redfin.com/OH/Columbus/5970-Forestview-Dr-43213/home/79615810,CBRMLS,219020697,N,Y,39.975279,-82.8415538
MLS Listing,,Single Family Residential,3878 Kenard Ct,Columbus,OH,43213,109900,3,1.0,,1080,11325,1956,48,102,,Active,,,http://www.redfin.com/OH/Columbus/3878-Kenard-Ct-43213/home/75608502,CBRMLS,219020357,N,Y,39.9591659,-82.8952042
MLS Listing,,Single Family Residential,5215 Doral Ave,Columbus,OH,43213,339900,3,3.5,,4736,13503,1977,49,72,,Active,,,http://www.redfin.com/OH/Columbus/5215-Doral-Ave-43213/home/79639850,CBRMLS,219020274,N,Y,39.9628545,-82.858804
MLS Listing,,Single Family Residential,674 Bellamy Pl,Columbus,OH,43213,242900,3,2.5,,2342,13068,1976,52,104,,Active,,,http://www.redfin.com/OH/Columbus/674-Bellamy-Pl-43213/home/79580391,CBRMLS,219019518,N,Y,39.9662415,-82.8312647
MLS Listing,,Single Family Residential,6222 Barberry Holw,Columbus,OH,43213,225000,4,2.5,,2110,16117,1965,54,107,,Active,July-27-2019 01:00 PM,July-27-2019 03:00 PM,http://www.redfin.com/OH/Columbus/6222-Barberry-Holw-43213/home/79516180,CBRMLS,219019277,N,Y,39.9573883,-82.8313909
MLS Listing,,Condo/Co-op,718 Fairway Blvd,Columbus,OH,43213,548900,3,3.0,,2035,,2019,58,270,300,Active,,,http://www.redfin.com/OH/Whitehall/718-Fairway-Blvd-43213/home/166865664,CBRMLS,219018543,N,Y,39.9655244,-82.8582018
MLS Listing,,Single Family Residential,5966 Whitman Rd,Columbus,OH,43213,459900,5,4.0,,3975,22215,1965,73,116,,Active,,,http://www.redfin.com/OH/Columbus/5966-Whitman-Rd-43213/home/75663948,CBRMLS,219016286,N,Y,39.9723341,-82.8413644
MLS Listing,,Single Family Residential,627 S Everett Ave,Columbus,OH,43213,72500,3,1.0,,1137,4791,1951,97,64,,Active,,,http://www.redfin.com/OH/Columbus/627-S-Everett-Ave-43213/home/79704743,CBRMLS,219012622,N,Y,39.958816,-82.9129449
MLS Listing,,Single Family Residential,6153 Cherry Hill Dr,Columbus,OH,43213,319900,6,2.5,,2926,14810,1964,105,109,,Active,,,http://www.redfin.com/OH/Columbus/6153-Cherry-Hill-Dr-43213/home/75599743,CBRMLS,219011408,N,Y,39.959894,-82.833798
MLS Listing,,Single Family Residential,478 Maplewood Ave,Columbus,OH,43213,94000,3,1.0,,1550,40510,1924,114,61,,Active,,,http://www.redfin.com/OH/Columbus/478-Maplewood-Ave-43213/home/79612029,CBRMLS,219009985,N,Y,39.9629858,-82.9028139
MLS Listing,,Single Family Residential,161 S James Rd,Columbus,OH,43213,79000,3,1.5,,1421,7840,1947,129,56,,Active,,,http://www.redfin.com/OH/Columbus/161-S-James-Rd-43213/home/79622279,CBRMLS,219007931,N,Y,39.9685082,-82.9141219
MLS Listing,,Multi-Family (2-4 Unit),4069 Abbey Ct #71,Whitehall,OH,43213,120000,,,,1792,6534,1959,157,67,,Active,,,http://www.redfin.com/OH/Whitehall/4069-Abbey-Ct-43213/unit-71/home/79762833,CBRMLS,219004581,N,Y,39.97302,-82.892216
MLS Listing,,Vacant Land,4094 E Main St,Whitehall,OH,43213,385000,,,,,52707,,238,,,Active,,,http://www.redfin.com/OH/Columbus/4094-E-Main-St-43213/home/148372629,CBRMLS,218043465,N,Y,39.956337,-82.888737
MLS Listing,,Single Family Residential,6092 Whitney Woods Ct,Columbus,OH,43213,595000,5,4.0,,4410,18295,2006,309,135,210,Active,,,http://www.redfin.com/OH/Columbus/6092-Whitney-Woods-Ct-43213/home/100709058,CBRMLS,218035585,N,Y,39.9700619,-82.8375351
MLS Listing,,Vacant Land,1111 Noe Bixby Rd,Columbus,OH,43213,40000,,,,,43560,,688,,,Active,,,http://www.redfin.com/OH/Columbus/1111-Noe-Bixby-Rd-43213/home/107603305,CBRMLS,217032869,N,Y,39.957582,-82.850547
MLS Listing,,Vacant Land,815 Lizzie Ln Lot 45,Whitehall,OH,43213,27500,,,,,6098,,855,,,Active,,,http://www.redfin.com/OH/Whitehall/815-Lizzie-Ln-43213/unit-45/home/113511825,CBRMLS,217008535,N,Y,39.9596191,-82.8710866
MLS Listing,,Vacant Land,901 Harbinger Cir E Lot 58,Whitehall,OH,43213,27500,,,,,6098,,855,,,Active,,,http://www.redfin.com/OH/Whitehall/901-Harbinger-Cir-E-43213/unit-58/home/113511590,CBRMLS,217008527,N,Y,39.9577413,-82.8698339
MLS Listing,,Vacant Land,915 Harbinger Cir E Lot 59,Whitehall,OH,43213,27500,,,,,6098,,855,,,Active,,,http://www.redfin.com/OH/Whitehall/915-Harbinger-Cir-E-43213/unit-59/home/113511334,CBRMLS,217008524,N,Y,39.9575422,-82.8699706
MLS Listing,,Vacant Land,909 Harbinger Cir W Lot 30,Whitehall,OH,43213,27500,,,,,6098,,855,,,Active,,,http://www.redfin.com/OH/Whitehall/909-Harbinger-Cir-W-43213/unit-30/home/113511222,CBRMLS,217008517,N,Y,39.9575163,-82.8716059
MLS Listing,,Vacant Land,198 Mcnaughten Rd,Columbus,OH,43213,1125000,,,Truro,1100,,1950,977,1023,,Active,,,http://www.redfin.com/OH/Columbus/198-McNaughten-Rd-43213/home/75645747,CBRMLS,216041392,N,Y,39.975817,-82.83409
MLS Listing,,Single Family Residential,305 Mcnaughten Rd,Columbus,OH,43213,399900,2,1.0,,1430,130680,1950,1114,280,,Active,,,http://www.redfin.com/OH/Columbus/305-McNaughten-Rd-43213/home/75651521,CBRMLS,216024517,N,Y,39.9737365,-82.8372616
MLS Listing,,Vacant Land,0 Chris Perry Ln,Columbus,OH,43213,325000,,,,,358934,,1534,,,Active,,,http://www.redfin.com/OH/Columbus/0-Chris-Perry-Ln-43213/home/113827824,CBRMLS,212022002,N,Y,39.9810192,-82.8293657
