SALE TYPE,SOLD DATE,PROPERTY TYPE,ADDRESS,CITY,STATE OR PROVINCE,ZIP OR POSTAL CODE,PRICE,BEDS,BATHS,LOCATION,SQUARE FEET,LOT SIZE,YEAR BUILT,DAYS ON MARKET,$/SQUARE FEET,HOA/MONTH,STATUS,NEXT OPEN HOUSE START TIME,NEXT OPEN HOUSE END TIME,URL (SEE http://www.redfin.com/buy-a-home/comparative-market-analysis FOR INFO ON PRICING),SOURCE,MLS#,FAVORITE,INTERESTED,LATITUDE,LONGITUDE
MLS Listing,,Condo/Co-op,5448 Poolbeg St #273,Canal Winchester,OH,43110,129900,3,2.5,,1356,1306,2004,1,96,78,Active,,,http://www.redfin.com/OH/Canal-Winchester/5448-Poolbeg-St-43110/unit-273/home/100709110,CBRMLS,219027762,N,Y,39.8982196,-82.8497547
MLS Listing,,Single Family Residential,226 Kramer St,Canal Winchester,OH,43110,219900,3,1.5,Violet,1759,9147,1993,1,125,,Active,,,http://www.redfin.com/OH/Canal-Winchester/226-Kramer-St-43110/home/70614753,CBRMLS,219027748,N,Y,39.8466851,-82.7980088
MLS Listing,,Condo/Co-op,6935 Greensview Village Dr,Canal Winchester,OH,43110,199900,3,2.5,Madison,1383,1306,2001,1,145,305,Active,,,http://www.redfin.com/OH/Canal-Winchester/6935-Greensview-Village-Dr-43110/home/79696377,CBRMLS,219027645,N,Y,39.8398258,-82.8245071
MLS Listing,,Condo/Co-op,5507 Poolbeg St #260,Canal Winchester,OH,43110,135000,2,2.0,,980,1306,2004,2,138,78,Active,,,http://www.redfin.com/OH/Canal-Winchester/5507-Poolbeg-St-43110/unit-260/home/75619411,CBRMLS,219027435,N,Y,39.8978112,-82.8485942
MLS Listing,,Condo/Co-op,6669 Lagrange Dr Unit 45C,Canal Winchester,OH,43110,99500,2,1.5,,1248,871,2000,2,80,160,Active,,,http://www.redfin.com/OH/Canal-Winchester/6669-Lagrange-Dr-43110/unit-45C/home/79609295,CBRMLS,219027425,N,Y,39.8743134,-82.8250014
MLS Listing,,Single Family Residential,223 N Sarwil Dr,Canal Winchester,OH,43110,234900,3,2.5,Madison,1714,10018,1996,2,137,,Active,,,http://www.redfin.com/OH/Canal-Winchester/223-N-Sarwil-Dr-43110/home/79700374,CBRMLS,219027390,N,Y,39.8506,-82.812113
MLS Listing,,Condo/Co-op,6520 Nottinghill Trail Dr,Canal Winchester,OH,43110,129900,2,3.0,,1680,871,2004,2,77,202,Active,July-28-2019 01:00 PM,July-28-2019 03:00 PM,http://www.redfin.com/OH/Canal-Winchester/6520-Nottinghill-Trail-Dr-43110/unit-13-6520/home/79679328,CBRMLS,219027334,N,Y,39.8817992,-82.820971
MLS Listing,,Single Family Residential,6800 Alex Dr,Canal Winchester,OH,43110,179900,3,2.0,,1352,8276,1997,3,133,,Active,,,http://www.redfin.com/OH/Canal-Winchester/6800-Alex-Dr-43110/home/79641973,CBRMLS,219027246,N,Y,39.8617463,-82.8190587
MLS Listing,,Single Family Residential,7450 Busey Rd NW,Canal Winchester,OH,43110,254900,4,1.0,Violet,4662,304048,1884,3,55,,Active,,,http://www.redfin.com/OH/Canal-Winchester/7450-Busey-Rd-43110/home/160570729,CBRMLS,219027237,N,Y,39.8620049,-82.7330274
MLS Listing,,Condo/Co-op,6423 Blue Knoll Dr,Canal Winchester,OH,43110,80000,1,1.0,,784,435,2008,3,102,130,Active,,,http://www.redfin.com/OH/Canal-Winchester/6423-Blue-Knoll-Dr-43110/unit-49-6423/home/79711578,CBRMLS,219027191,N,Y,39.8806239,-82.8233783
MLS Listing,,Single Family Residential,96 E Columbus St,Canal Winchester,OH,43110,230000,3,1.5,Madison,1320,6534,1926,4,174,,Active,July-28-2019 02:00 PM,July-28-2019 04:00 PM,http://www.redfin.com/OH/Canal-Winchester/96-E-Columbus-St-43110/home/100765089,CBRMLS,219027057,N,Y,39.840402,-82.802536
MLS Listing,,Single Family Residential,7265 Konold Ct,Canal Winchester,OH,43110,399990,3,2.5,Madison,2162,10454,2019,7,185,10,Active,,,http://www.redfin.com/OH/Canal-Winchester/7265-Konold-Ct-43110/home/167675518,CBRMLS,219026657,N,Y,39.832422,-82.83289
MLS Listing,,Single Family Residential,5587 Readers St,Canal Winchester,OH,43110,185000,3,2.0,,1510,11325,2006,8,123,8,Active,,,http://www.redfin.com/OH/Canal-Winchester/5587-Readers-St-43110/home/100783762,CBRMLS,219026520,N,Y,39.8663558,-82.816028
MLS Listing,,Single Family Residential,3597 Motts Place Ct,Canal Winchester,OH,43110,224900,3,3.0,,1926,13068,2000,8,117,,Active,,,http://www.redfin.com/OH/Canal-Winchester/3597-Motts-Pl-Ct-43110/home/79667418,CBRMLS,219026477,N,Y,39.9102761,-82.8144494
MLS Listing,,Single Family Residential,6880 Riding Trail Dr,Canal Winchester,OH,43110,169900,3,2.0,,1253,4791,2009,9,136,15,Active,,,http://www.redfin.com/OH/Canal-Winchester/6880-Riding-Trail-Dr-43110/home/79733852,CBRMLS,219026287,N,Y,39.8978146,-82.8116078
MLS Listing,,Vacant Land,0 Allen Rd NW,Canal Winchester,OH,43110,144900,,,Violet,,252648,,9,,,Active,,,http://www.redfin.com/OH/CANAL-WNCHSTR/Allen-Rd-43110/home/144841737,CBRMLS,219026248,N,Y,39.841434,-82.722902
MLS Listing,,Single Family Residential,3220 Brice Rd,Canal Winchester,OH,43110,399900,3,2.5,,1998,217800,1964,9,200,,Active,,,http://www.redfin.com/OH/Canal-Winchester/3220-Brice-Rd-43110/home/79752686,CBRMLS,219026174,N,Y,39.9114619,-82.8322958
MLS Listing,,Single Family Residential,5437 Rothermund Dr,Canal Winchester,OH,43110,205000,4,2.5,,2592,6534,2007,9,79,6,Active,,,http://www.redfin.com/OH/Canal-Winchester/5437-Rothermund-Dr-43110/home/79665766,CBRMLS,219026157,N,Y,39.8706094,-82.8072716
MLS Listing,,Single Family Residential,7432 Basil Western Rd,Canal Winchester,OH,43110,539900,4,3.0,Violet,4791,1208354,1992,10,113,,Active,,,http://www.redfin.com/OH/Canal-Winchester/7432-Basil-Western-Rd-43110/home/70605849,CBRMLS,219026118,N,Y,39.846039,-82.731488
MLS Listing,,Condo/Co-op,6317 Marengo St,Canal Winchester,OH,43110,149999,3,2.0,,1246,3484,2009,10,120,82,Active,,,http://www.redfin.com/OH/Canal-Winchester/6317-Marengo-St-43110/home/100706184,CBRMLS,219026011,N,Y,39.8718622,-82.8274769
MLS Listing,,Vacant Land,0 Sitterley Rd NW Lot 2,Canal Winchester,OH,43110,84900,,,Bloom,,136342,,12,,,Active,,,http://www.redfin.com/OH/CANAL-WNCHSTR/Sitterley-Rd-NW-43110/unit-2/home/167404810,CBRMLS,219025790,N,Y,39.788682,-82.788409
MLS Listing,,Single Family Residential,7251 Snowberry Ln,Canal Winchester,OH,43110,269775,4,3.5,Madison,2600,15681,1994,13,104,10,Active,,,http://www.redfin.com/OH/Canal-Winchester/7251-Snowberry-Ln-43110/home/79698490,CBRMLS,219025739,N,Y,39.8336538,-82.8258354
MLS Listing,,Single Family Residential,7737 Glenwood Ave NW,Canal Winchester,OH,43110,439900,4,3.5,Violet,3029,27442,1993,14,145,15,Active,,,http://www.redfin.com/OH/Canal-Winchester/7737-Glenwood-Ave-NW-43110/home/70609817,CBRMLS,219025609,N,Y,39.845463,-82.7368004
MLS Listing,,Single Family Residential,8054 Jefferson Dr,Canal Winchester,OH,43110,359000,3,3.5,Violet,3414,24393,1972,14,105,10,Active,July-28-2019 02:00 PM,July-28-2019 04:00 PM,http://www.redfin.com/OH/Canal-Winchester/8054-Jefferson-Dr-43110/home/70607457,CBRMLS,219025537,N,Y,39.8486496,-82.7439435
MLS Listing,,Single Family Residential,6433 Buckner St,Canal Winchester,OH,43110,439900,4,3.0,Madison,4700,16988,2014,14,94,13,Active,,,http://www.redfin.com/OH/Canal-Winchester/6433-Buckner-St-43110/home/79736441,CBRMLS,219025515,N,Y,39.8323671,-82.8212055
MLS Listing,,Single Family Residential,10080 Fairfield Farms Dr,Canal Winchester,OH,43110,364900,4,3.5,Bloom,2162,62726,2004,14,169,,Active,,,http://www.redfin.com/OH/Canal-Winchester/10080-Fairfield-Farms-Dr-43110/home/70581624,CBRMLS,219025469,N,Y,39.7580687,-82.7906398
MLS Listing,,Single Family Residential,7693 Glenwood Ave NW,Canal Winchester,OH,43110,419900,5,3.5,Violet,3285,27878,2000,15,128,15,Active,,,http://www.redfin.com/OH/Canal-Winchester/7693-Glenwood-Ave-NW-43110/home/70609819,CBRMLS,219025460,N,Y,39.8448738,-82.736969
MLS Listing,,Single Family Residential,3528 Woody Way,Canal Winchester,OH,43110,130000,3,1.5,,1478,10018,1994,16,88,,Active,,,http://www.redfin.com/OH/Canal-Winchester/3528-Woody-Way-43110/home/79611658,CBRMLS,219025175,N,Y,39.9111863,-82.8127024
MLS Listing,,Single Family Residential,5688 Winchester Pike,Canal Winchester,OH,43110,259900,4,2.5,Madison,2420,46609,1966,16,107,,Active,,,http://www.redfin.com/OH/Canal-Winchester/5688-Winchester-Pike-43110/home/79614453,CBRMLS,219025170,N,Y,39.8770577,-82.8442678
MLS Listing,,Single Family Residential,7470 Williamson Ln,Canal Winchester,OH,43110,294900,4,2.5,Madison,2648,11325,2006,16,111,10,Active,,,http://www.redfin.com/OH/Canal-Winchester/7470-Williamson-Ln-43110/home/100765312,CBRMLS,219024988,N,Y,39.8302207,-82.8111026
MLS Listing,,Single Family Residential,7549 Silver Springs St NW,Canal Winchester,OH,43110,837000,6,8.5,Violet,9437,27878,1995,21,89,29,Active,,,http://www.redfin.com/OH/Canal-Winchester/7549-Silver-Springs-St-NW-43110/home/70610555,CBRMLS,219024475,N,Y,39.842906,-82.734041
MLS Listing,,Single Family Residential,11445 Marcy Rd NW,Canal Winchester,OH,43110,269900,3,1.5,Bloom,1900,187743,1982,26,142,,Active,,,http://www.redfin.com/OH/Canal-Winchester/11445-Marcy-Rd-NW-43110/home/70593324,CBRMLS,219023808,N,Y,39.7485751,-82.8177117
MLS Listing,,Single Family Residential,7555 Allen Rd,Canal Winchester,OH,43110,499900,4,3.5,Violet,4106,218235,1994,28,122,,Active,,,http://www.redfin.com/OH/Canal-Winchester/7555-Allen-Rd-43110/home/70605791,CBRMLS,219023637,N,Y,39.841432,-82.72471
MLS Listing,,Single Family Residential,7299 Connor Ave,Canal Winchester,OH,43110,385000,4,3.5,Madison,3142,10454,2007,29,123,13,Active,,,http://www.redfin.com/OH/Canal-Winchester/7299-Connor-Ave-43110/home/79498406,CBRMLS,219023405,N,Y,39.8381158,-82.8174802
MLS Listing,,Single Family Residential,3787 Sugarbark Dr,Canal Winchester,OH,43110,224990,4,2.5,,2014,4791,2018,29,112,14,Active,,,http://www.redfin.com/OH/Canal-Winchester/3787-Sugarbark-Dr-43110/home/142713620,CBRMLS,219023387,N,Y,39.90456,-82.807812
MLS Listing,,Single Family Residential,525 Gender Rd,Canal Winchester,OH,43110,299000,4,2.0,Madison,1998,219978,1922,29,150,,Active,,,http://www.redfin.com/OH/Canal-Winchester/525-Gender-Rd-43110/home/79476506,CBRMLS,219023238,N,Y,39.831792,-82.8316224
MLS Listing,,Single Family Residential,6023 Waterloo Rd NW,Canal Winchester,OH,43110,389900,3,2.5,Violet,2372,157687,2008,31,164,,Active,,,http://www.redfin.com/OH/Canal-Winchester/6023-Waterloo-Rd-NW-43110/home/70587527,CBRMLS,219022979,N,Y,39.8236208,-82.7956508
MLS Listing,,Single Family Residential,7172 Snowberry Ln,Canal Winchester,OH,43110,279900,4,2.5,Madison,2946,17859,1993,31,95,10,Active,,,http://www.redfin.com/OH/Canal-Winchester/7172-Snowberry-Ln-43110/home/79698241,CBRMLS,219022897,N,Y,39.8349199,-82.8243202
MLS Listing,,Single Family Residential,259 Kramer St,Canal Winchester,OH,43110,314900,4,2.5,Violet,3970,10018,2001,31,79,,Active,,,http://www.redfin.com/OH/Canal-Winchester/259-Kramer-St-43110/home/70614704,CBRMLS,219022888,N,Y,39.845948,-82.7967667
MLS Listing,,Single Family Residential,7122 Rosemount Way,Canal Winchester,OH,43110,339900,3,3.0,Madison,4120,12196,2004,31,83,13,Active,,,http://www.redfin.com/OH/Canal-Winchester/Unknown-Unknown/home/100785734,CBRMLS,219022865,N,Y,39.83619,-82.821611
MLS Listing,,Single Family Residential,6070 Lithopolis Winchester Rd NW,Canal Winchester,OH,43110,599900,3,2.5,Violet,2958,265716,1950,34,203,,Active,,,http://www.redfin.com/OH/Canal-Winchester/6070-Lithopolis-Winchester-Rd-NW-43110/home/70587984,CBRMLS,219022646,N,Y,39.8240063,-82.8023126
MLS Listing,,Single Family Residential,6194 Mistover Ln,Canal Winchester,OH,43110,249900,4,2.5,Madison,2324,9583,2000,36,108,10,Active,,,http://www.redfin.com/OH/Canal-Winchester/6194-Mistover-Ln-43110/home/79699241,CBRMLS,219022357,N,Y,39.8317605,-82.829497
MLS Listing,,Single Family Residential,6566 Braddock Pl,Canal Winchester,OH,43110,399900,5,3.0,Madison,2914,17859,2005,37,137,13,Active,July-28-2019 01:00 PM,July-28-2019 03:00 PM,http://www.redfin.com/OH/Canal-Winchester/6566-Braddock-Pl-43110/home/100785728,CBRMLS,219022123,N,Y,39.8358708,-82.8212686
MLS Listing,,Single Family Residential,34 West St,Canal Winchester,OH,43110,189900,3,1.0,Madison,1584,14374,1929,41,120,,Active,,,http://www.redfin.com/OH/Canal-Winchester/34-West-St-43110/home/75643978,CBRMLS,219021567,N,Y,39.8450931,-82.8114614
MLS Listing,,Condo/Co-op,464 Autumn Ridge Cir,Pickerington,OH,43147,156115,2,2.5,Violet,1450,,2019,45,108,162,Active,,,http://www.redfin.com/OH/Pickerington/464-Autumn-Ridge-Cir-43147/home/167078190,CBRMLS,219020659,N,Y,39.860526,-82.773082
MLS Listing,,Condo/Co-op,448 Autumn Ridge Cir,Pickerington,OH,43147,178560,2,2.5,Violet,1498,,2019,45,119,162,Active,,,http://www.redfin.com/OH/Pickerington/448-Autumn-Ridge-Cir-43147/home/167078186,CBRMLS,219020655,N,Y,39.860526,-82.773082
MLS Listing,,Single Family Residential,6888 Eliza Dr,Canal Winchester,OH,43110,262000,3,3.0,Violet,2750,9583,2004,46,95,23,Active,,,http://www.redfin.com/OH/Canal-Winchester/6888-Eliza-Dr-43110/home/70583851,CBRMLS,219020561,N,Y,39.8437263,-82.7999457
MLS Listing,,Vacant Land,0 Cedar Hill Rd NW,Canal Winchester,OH,43110,98000,,,Bloom,,199940,,50,,,Active,,,http://www.redfin.com/OH/Bloom-Township/Cedar-Hill-Rd-NW-43110/home/70591208,CBRMLS,219020045,N,Y,39.783962,-82.805518
MLS Listing,,Single Family Residential,7412 Busey Rd NW,Canal Winchester,OH,43110,409900,5,3.0,Violet,3418,472190,1994,51,120,,Active,,,http://www.redfin.com/OH/Canal-Winchester/7412-Busey-Rd-43110/home/70606257,CBRMLS,219019670,N,Y,39.858128,-82.732333
MLS Listing,,Single Family Residential,10020 Lithopolis Rd NW,Canal Winchester,OH,43110,260000,3,2.0,Bloom,1904,48787,1973,51,137,,Active,,,http://www.redfin.com/OH/Canal-Winchester/10020-Lithopolis-Rd-NW-43110/home/70591269,CBRMLS,219019636,N,Y,39.7836624,-82.7869339
MLS Listing,,Single Family Residential,6098 Harrison Ln,Canal Winchester,OH,43110,399990,4,2.5,Madison,2615,10454,2019,56,153,10,Active,,,http://www.redfin.com/OH/Canal-Winchester/6098-Harrison-Ln-43110/home/112959021,CBRMLS,219019073,N,Y,39.832748,-82.831572
MLS Listing,,Single Family Residential,4705 Lithopolis Winchester Rd,Canal Winchester,OH,43110,264900,3,1.5,Bloom,2300,57934,1972,58,115,,Active,,,http://www.redfin.com/OH/Canal-Winchester/4705-Lithopolis-Winchester-Rd-NW-43110/home/113392244,CBRMLS,219018542,N,Y,39.8053872,-82.8047097
MLS Listing,,Single Family Residential,7244 Porter Dr,Canal Winchester,OH,43110,374900,6,4.5,Madison,4700,12196,2003,65,80,,Active,,,http://www.redfin.com/OH/Canal-Winchester/7244-Porter-Dr-43110/home/100704076,CBRMLS,219017614,N,Y,39.8360534,-82.81647
MLS Listing,,Single Family Residential,5447 Town Hill Dr,Canal Winchester,OH,43110,235500,4,3.5,,2599,5662,2009,67,91,35,Active,,,http://www.redfin.com/OH/Canal-Winchester/5447-Town-Hill-Dr-43110/home/79720241,CBRMLS,219017354,N,Y,39.8890468,-82.8500743
MLS Listing,,Vacant Land,0 Jefferson Dr,Canal Winchester,OH,43110,64900,,,Violet,,26571,,73,,,Active,,,http://www.redfin.com/OH/Violet-Township/Jefferson-Dr-43110/home/70607417,CBRMLS,219016230,N,Y,39.848073,-82.745383
MLS Listing,,Vacant Land,0 Winchester Pike,Canal Winchester,OH,43110,299900,,,Madison,,1114700,,88,,,Active,,,http://www.redfin.com/OH/Canal-Winchester/Winchester-Pike-Unknown/home/79750100,CBRMLS,219013857,N,Y,39.890378,-82.856122
MLS Listing,,Single Family Residential,7512 Autumn Joy Ave,Canal Winchester,OH,43110,259990,4,2.5,,1858,6534,2019,98,140,14,Active,,,http://www.redfin.com/OH/Violet-Township/7512-Joy-Ct-43110/home/160767125,CBRMLS,219012547,N,Y,39.905692,-82.805201
MLS Listing,,Single Family Residential,3724 Winding Path Dr,Canal Winchester,OH,43110,249990,3,2.5,,1552,6534,2019,98,161,14,Active,,,http://www.redfin.com/OH/Canal-Winchester/3724-Winding-Path-Dr-43110/home/162707977,CBRMLS,219012518,N,Y,39.903879,-82.804716
MLS Listing,,Single Family Residential,3854 Mason Rd NW,Canal Winchester,OH,43110,599900,5,4.0,Bloom,5674,479160,1971,105,106,,Active,,,http://www.redfin.com/OH/Canal-Winchester/3854-Mason-Rd-NW-43110/home/114078421,CBRMLS,219011476,N,Y,39.791056,-82.7684589
MLS Listing,,Single Family Residential,47 E Oak St,Canal Winchester,OH,43110,175000,2,2.0,Madison,1183,7840,1925,113,148,,Active,,,http://www.redfin.com/OH/Canal-Winchester/47-E-Oak-St-43110/home/75644150,CBRMLS,219010285,N,Y,39.8448621,-82.8021351
MLS Listing,,Vacant Land,0 Clinton St,Canal Winchester,OH,43110,199900,,,Madison,,44866,,114,,,Active,,,http://www.redfin.com/OH/Canal-Winchester/Clinton-St-43110/home/75643834,CBRMLS,219010042,N,Y,39.842879,-82.809572
MLS Listing,,Single Family Residential,3588 Cedar Hill Rd NW,Canal Winchester,OH,43110,294500,3,2.0,Bloom,1568,112384,1970,114,188,,Active,,,http://www.redfin.com/OH/Canal-Winchester/3588-Cedar-Hill-Rd-NW-43110/home/70591652,CBRMLS,219009924,N,Y,39.7886249,-82.8052718
MLS Listing,,Single Family Residential,106 E Columbus St,Canal Winchester,OH,43110,399900,3,2.5,Madison,2852,34848,1936,116,140,,Active,,,http://www.redfin.com/OH/Canal-Winchester/106-E-Columbus-St-43110/home/75708448,CBRMLS,219009594,N,Y,39.8402709,-82.8022614
MLS Listing,,Unknown,6523 Dorothys Crk,Canal Winchester,OH,43110,2575000,,,,,,2003,120,,,Active,,,http://www.redfin.com/OH/Canal-Winchester/6523-Dorothy-s-Crk-43110/home/75651967,CBRMLS,219009184,N,Y,39.9048947,-82.8225353
MLS Listing,,Single Family Residential,3781 Sugarbark Dr,Canal Winchester,OH,43110,217990,3,2.5,,1618,4791,2019,126,135,14,Active,,,http://www.redfin.com/OH/Canal-Winchester/3781-Sugarbark-Dr-43110/home/142713621,CBRMLS,219008439,N,Y,39.9046881,-82.8078036
MLS Listing,,Vacant Land,5600 Winchester Pike,Canal Winchester,OH,43110,4570450,,,Madison,1795,3981819,1935,153,2546,,Active,,,http://www.redfin.com/OH/Canal-Winchester/5600-Winchester-Pike-43110/home/79516164,CBRMLS,219005077,N,Y,39.8798699,-82.847087
MLS Listing,,Vacant Land,0 Clinton St,Canal Winchester,OH,43110,49900,,,Madison,,8712,,210,,,Active,,,http://www.redfin.com/OH/Canal-Winchester/Clinton-St-43110/home/75643835,CBRMLS,218045431,N,Y,39.842696,-82.809588
MLS Listing,,Vacant Land,0 N High St,Canal Winchester,OH,43110,350000,,,Madison,,78408,,210,,,Active,,,http://www.redfin.com/OH/Canal-Winchester/7-N-High-St-43110/home/100765061,CBRMLS,218045409,N,Y,39.8430291,-82.8054612
MLS Listing,,Single Family Residential,9125 Basil Western Rd NW,Canal Winchester,OH,43110,699900,5,3.5,Violet,3926,479160,1975,227,178,,Active,,,http://www.redfin.com/OH/Canal-Winchester/9125-Basil-Western-Rd-43110/home/70610986,CBRMLS,218044413,N,Y,39.8423005,-82.7648629
MLS Listing,,Vacant Land,0 White Tail Drive Dr,Canal Winchester,OH,43110,89000,,,Bloom,,76665,,235,,,Active,,,http://www.redfin.com/OH/Canal-Winchester/White-Tail-Dr-43110/home/70587930,CBRMLS,218043685,N,Y,39.82154,-82.800201
MLS Listing,,Vacant Land,0 Basil-western Rd NW,Canal Winchester,OH,43110,465000,,,Violet,,316245,,235,,,Active,,,http://www.redfin.com/OH/Canal-Winchester/9645-Basil-Western-Rd-43110/home/146625323,CBRMLS,218043641,N,Y,39.8428425,-82.7748563
MLS Listing,,Condo/Co-op,4306 Coble Bowman Way,Canal Winchester,OH,43110,97900,2,1.5,,1152,871,2008,235,85,215,Active,,,http://www.redfin.com/OH/Canal-Winchester/4306-Coble-Bowman-Way-43110/unit-16-4306/home/75652493,CBRMLS,218043637,N,Y,39.8910328,-82.8464205
MLS Listing,,Vacant Land,0 Gender Rd,Canal Winchester,OH,43110,467640,,,Madison,,37897,,260,,,Active,,,http://www.redfin.com/OH/Canal-Winchester/Gender-Rd-Unknown/home/100765146,CBRMLS,218041668,N,Y,39.844277,-82.829798
MLS Listing,,Vacant Land,0 Groveport Rd,Canal Winchester,OH,43110,150000,,,Madison,,136342,,268,,,Active,,,http://www.redfin.com/OH/Canal-Winchester/Groveport-Rd-Unknown/home/100725545,CBRMLS,218040658,N,Y,39.847978,-82.839288
MLS Listing,,Vacant Land,0 Allen Rd NW Lot 7 - 2 acres,Canal Winchester,OH,43110,75000,,,Violet,,87991,,292,,,Active,,,http://www.redfin.com/OH/CANAL-WNCHSTR/Allen-Rd-43110/unit-7-2-acres/home/147465138,CBRMLS,218037849,N,Y,39.846825,-82.722661
MLS Listing,,Vacant Land,10570 Winchester Rd NW,Canal Winchester,OH,43110,194000,,,Violet,,281397,,316,,,Active,,,http://www.redfin.com/OH/Canal-Winchester/10570-Winchester-Rd-NW-43110/unit-back-of-property/home/145580000,CBRMLS,218034739,N,Y,39.8312568,-82.793343
MLS Listing,,Single Family Residential,5590 Waterloo Rd NW,Canal Winchester,OH,43110,1133000,6,4.5,Bloom,8266,1143885,2000,336,137,,Active,,,http://www.redfin.com/OH/Canal-Winchester/5590-Waterloo-Rd-NW-43110/home/113141416,CBRMLS,218032233,N,Y,39.8136499,-82.7935477
MLS Listing,,Vacant Land,0 Shannon Rd,Canal Winchester,OH,43110,99900,,,,,96703,,346,,,Active,,,http://www.redfin.com/OH/Canal-Winchester/0-Shannon-Rd-43110/home/147069715,CBRMLS,218030741,N,Y,39.893459,-82.847564
MLS Listing,,Vacant Land,0 Groveport Rd,Canal Winchester,OH,43110,530040,,,Madison,,384634,,347,,,Active,,,http://www.redfin.com/OH/Canal-Winchester/Groveport-Rd-Unknown/home/75612121,CBRMLS,218030522,N,Y,39.844701,-82.810844
MLS Listing,,Vacant Land,0 Winchester Southern Rd,Canal Winchester,OH,43110,78900,,,Bloom,,125888,,354,,,Active,,,http://www.redfin.com/OH/Canal-Winchester/Winchester-Southern-Rd-Unknown/home/70587183,CBRMLS,218029555,N,Y,39.809175,-82.821434
MLS Listing,,Vacant Land,5100 Ebright Rd,Canal Winchester,OH,43110,340000,,,,,1393920,,407,,,Active,,,http://www.redfin.com/OH/Canal-Winchester/5100-Ebright-Rd-43110/home/100710576,CBRMLS,218021379,N,Y,39.880724,-82.858476
MLS Listing,,Vacant Land,0 Wright Rd,Canal Winchester,OH,43110,438900,,,,,474368,,412,,,Active,,,http://www.redfin.com/OH/South-Columbus/Wright-Rd-43110/home/75716208,CBRMLS,218020716,N,Y,39.890082,-82.822985
MLS Listing,,Single Family Residential,6147 Dietz Dr #227,Canal Winchester,OH,43110,409990,4,2.5,Madison,2455,,2018,413,167,10,Active,July-27-2019 12:00 PM,July-27-2019 04:00 PM,http://www.redfin.com/OH/Canal-Winchester/6147-Dietz-Dr-43110/unit-227/home/146012876,CBRMLS,218020563,N,Y,39.8349692,-82.8313238
MLS Listing,,Single Family Residential,,Canal Winchester,OH,43110,129000,1,1.0,,4466,27878,1950,536,29,,Active,,,http://www.redfin.com/OH/Canal-Winchester/Undisclosed-address-43110/home/144823963,CBRMLS,218002989,N,Y,39.789052,-82.7966825
MLS Listing,,Single Family Residential,300 Bowen Rd,Canal Winchester,OH,43110,1848750,4,3.0,Violet,5095,4408272,1900,725,363,,Active,,,http://www.redfin.com/OH/Canal-Winchester/300-Bowen-Rd-43110/home/143058739,CBRMLS,217027815,N,Y,39.853553,-82.801422
MLS Listing,,Vacant Land,0 Bowen Rd,Canal Winchester,OH,43110,1848750,,,Madison,,4408272,,767,,,Active,,,http://www.redfin.com/OH/Canal-Winchester/Bowen-Rd-43110/home/100765152,CBRMLS,217021361,N,Y,39.855405,-82.801073
MLS Listing,,Vacant Land,,Canal Winchester,OH,43110,105000,,,,,221720,,904,,,Active,,,http://www.redfin.com/OH/Canal-Winchester/Undisclosed-address-43110/home/113010568,CBRMLS,217002897,N,Y,39.760155,-82.764133
MLS Listing,,Vacant Land,0 Pickerington Rd,Canal Winchester,OH,43110,425000,,,Violet,,375922,,954,,,Active,,,http://www.redfin.com/OH/Canal-Winchester/0-Pickerington-Rd-43110/home/146236726,CBRMLS,216043072,N,Y,39.835525,-82.744992
MLS Listing,,Vacant Land,0 Alspach Rd,Canal Winchester,OH,43110,89000,,,Bloom,,218671,,1014,,,Active,,,http://www.redfin.com/OH/CANAL-WNCHSTR/Alspach-Rd-NW-43110/home/70593620,CBRMLS,216022982,N,Y,39.76065,-82.768641
MLS Listing,,Vacant Land,8699 Lithopolis Rd NW,Canal Winchester,OH,43110,70000,,,Bloom,,218235,,1014,,,Active,,,http://www.redfin.com/OH/Canal-Winchester/8699-Lithopolis-Rd-NW-43110/home/70592998,CBRMLS,216001371,N,Y,39.772532,-82.763294
MLS Listing,,Vacant Land,7190 Babbert Pl,Canal Winchester,OH,43110,299000,,,Violet,,91476,,1014,,,Active,,,http://www.redfin.com/OH/Canal-Winchester/7190-Babbert-Pl-43110/home/70610890,CBRMLS,215012504,N,Y,39.8419942,-82.7821058
MLS Listing,,Vacant Land,7800 Amanda Northern Rd,Canal Winchester,OH,43110,650000,,,Violet,1564,1306800,1900,1014,416,,Active,,,http://www.redfin.com/OH/Canal-Winchester/7800-Amanda-Northern-Rd-43110/home/109295740,CBRMLS,2406462,N,Y,39.846413,-82.7545259
For-Sale-by-Owner Listing,,Condo/Co-op,6346 Lakeview Cir,Canal Winchester,OH,43110,235000,2,2.0,Canal Winchester,1315,,2004,1,179,,Active,,,http://www.redfin.com/OH/Canal-Winchester/6346-Lakeview-Cir-43110/home/79733968,FSBO.com,512725,N,Y,39.8528103,-82.8196136
For-Sale-by-Owner Listing,,Single Family Residential,11861 Alspach Rd NW,Canal Winchester,OH,43110,319999,4,4.0,Canal Winchester,2350,49658,1972,220,136,,Active,,,http://www.redfin.com/OH/Canal-Winchester/11861-Alspach-Rd-NW-43110/home/70593347,Fizber.com,4992798,N,Y,39.7659488,-82.8243833
New Construction Home,,Single Family Residential,6147 Dietz Dr,Canal Winchester,OH,43110,409990,4,2.0,Villages At Westchester,2455,,2019,119,167,,Active,,,http://www.redfin.com/OH/Canal-Winchester/6147-Dietz-Dr-43110/home/112959229,NewHomeSource.com,1607530,N,Y,39.8423344,-82.8240854
New Construction Plan,,Single Family Residential,Redmond,Canal Winchester,OH,43110,276990,3,2.0,Canal Cove,1969,,,,141,,Active,,,http://www.redfin.com/OH/Canal-Winchester/Canal-Cove/Redmond/home/161096251,NewHomeSource.com,Plan-91351030,N,Y,39.840196,-82.796909
New Construction Plan,,Single Family Residential,Newport,Canal Winchester,OH,43110,296990,4,2.5,Canal Cove,3136,,,,95,,Active,,,http://www.redfin.com/OH/Canal-Winchester/Canal-Cove/Newport/home/161096252,NewHomeSource.com,Plan-91351029,N,Y,39.840196,-82.796909
New Construction Plan,,Single Family Residential,Sycamore II,Canal Winchester,OH,43110,317990,3,2.0,Canal Cove,2462,,,,129,,Active,,,http://www.redfin.com/OH/Canal-Winchester/Canal-Cove/Sycamore-II/home/161096245,NewHomeSource.com,Plan-91434819,N,Y,39.840196,-82.796909
New Construction Plan,,Single Family Residential,Roseville,Canal Winchester,OH,43110,202990,3,2.0,Abbie Trails,1677,,,,121,,Active,,,http://www.redfin.com/OH/Canal-Winchester/Abbie-Trails/Roseville/home/148378383,NewHomeSource.com,Plan-91474648,N,Y,39.9008657,-82.8060507
New Construction Plan,,Single Family Residential,Somerset,Canal Winchester,OH,43110,209990,4,2.0,Abbie Trails,1958,,,,107,,Active,,,http://www.redfin.com/OH/Canal-Winchester/Abbie-Trails/Somerset/home/148378384,NewHomeSource.com,Plan-91474647,N,Y,39.9008657,-82.8060507
New Construction Plan,,Single Family Residential,Monterey,Canal Winchester,OH,43110,282990,4,2.5,Canal Cove,2500,,,,113,,Active,,,http://www.redfin.com/OH/Canal-Winchester/Canal-Cove/Monterey/home/160911394,NewHomeSource.com,Plan-91351027,N,Y,39.840196,-82.796909
New Construction Plan,,Single Family Residential,Bellepointe,Canal Winchester,OH,43110,212990,4,2.0,Abbie Trails,2064,,,,103,,Active,,,http://www.redfin.com/OH/Canal-Winchester/Abbie-Trails/Bellepointe/home/148378385,NewHomeSource.com,Plan-91474646,N,Y,39.9008657,-82.8060507
New Construction Plan,,Single Family Residential,Kensbrooke,Canal Winchester,OH,43110,272990,4,2.5,Canal Cove,2400,,,,114,,Active,,,http://www.redfin.com/OH/Canal-Winchester/Canal-Cove/Kensbrooke/home/161096253,NewHomeSource.com,Plan-91351025,N,Y,39.840196,-82.796909
New Construction Plan,,Single Family Residential,Hollister,Canal Winchester,OH,43110,251990,3,2.0,Canal Cove,1497,,,,168,,Active,,,http://www.redfin.com/OH/Canal-Winchester/Canal-Cove/Hollister/home/161096254,NewHomeSource.com,Plan-91351024,N,Y,39.840196,-82.796909
New Construction Plan,,Single Family Residential,Montgomery,Canal Winchester,OH,43110,259990,3,2.5,Canal Cove,2436,,,,107,,Active,,,http://www.redfin.com/OH/Canal-Winchester/Canal-Cove/Montgomery/home/161352297,NewHomeSource.com,Plan-91623324,N,Y,39.840196,-82.796909
New Construction Plan,,Single Family Residential,Hollister II,Canal Winchester,OH,43110,239990,3,2.0,Canal Cove,1500,,,,160,,Active,,,http://www.redfin.com/OH/Canal-Winchester/Canal-Cove/Hollister-II/home/161352299,NewHomeSource.com,Plan-91623323,N,Y,39.840196,-82.796909
New Construction Plan,,Single Family Residential,Hampshire,Canal Winchester,OH,43110,300990,4,2.5,Canal Cove,2858,,,,105,,Active,,,http://www.redfin.com/OH/Canal-Winchester/Canal-Cove/Hampshire/home/161059817,NewHomeSource.com,Plan-91351021,N,Y,39.840196,-82.796909
New Construction Plan,,Single Family Residential,Hawthorne,Canal Winchester,OH,43110,285990,3,2.0,Canal Cove,2031,,,,141,,Active,,,http://www.redfin.com/OH/Canal-Winchester/Canal-Cove/Hawthorne/home/161096237,NewHomeSource.com,Plan-91351022,N,Y,39.840196,-82.796909
New Construction Plan,,Single Family Residential,Bristol II,Canal Winchester,OH,43110,249990,4,2.5,Canal Cove,2252,,,,111,,Active,,,http://www.redfin.com/OH/Canal-Winchester/Canal-Cove/Bristol-II/home/161352303,NewHomeSource.com,Plan-91623321,N,Y,39.840196,-82.796909
New Construction Plan,,Single Family Residential,Columbia,Canal Winchester,OH,43110,257990,4,2.5,Canal Cove,2129,,,,121,,Active,,,http://www.redfin.com/OH/Canal-Winchester/Canal-Cove/Columbia/home/161352300,NewHomeSource.com,Plan-91623322,N,Y,39.840196,-82.796909
New Construction Plan,,Single Family Residential,Belmont,Canal Winchester,OH,43110,243990,3,2.5,Canal Cove,1922,,,,127,,Active,,,http://www.redfin.com/OH/Canal-Winchester/Canal-Cove/Belmont/home/161352305,NewHomeSource.com,Plan-91623320,N,Y,39.840196,-82.796909
New Construction Plan,,Single Family Residential,Denali,Canal Winchester,OH,43110,326990,4,2.5,Canal Cove,3485,,,,94,,Active,,,http://www.redfin.com/OH/Canal-Winchester/Canal-Cove/Denali/home/160911392,NewHomeSource.com,Plan-91351018,N,Y,39.840196,-82.796909
New Construction Plan,,Single Family Residential,Newport II,Canal Winchester,OH,43110,312990,4,2.5,Canal Cove,3215,,,,97,,Active,,,http://www.redfin.com/OH/Canal-Winchester/Canal-Cove/Newport-II/home/160911391,NewHomeSource.com,Plan-91436348,N,Y,39.840196,-82.796909
New Construction Plan,,Single Family Residential,Coronada,Canal Winchester,OH,43110,339990,4,3.5,Canal Cove,3631,,,,94,,Active,,,http://www.redfin.com/OH/Canal-Winchester/Canal-Cove/Coronada/home/161096238,NewHomeSource.com,Plan-91351016,N,Y,39.840196,-82.796909
New Construction Plan,,Single Family Residential,Campton,Canal Winchester,OH,43110,301990,4,2.5,Canal Cove,2862,,,,106,,Active,,,http://www.redfin.com/OH/Canal-Winchester/Canal-Cove/Campton/home/161096239,NewHomeSource.com,Plan-91351015,N,Y,39.840196,-82.796909
New Construction Plan,,Single Family Residential,Ascend,Pickerington,OH,43147,244990,2,2.0,The Retreat at Sycamore Creek,1935,,,,127,,Active,,,http://www.redfin.com/OH/Pickerington/The-Retreat-at-Sycamore-Creek/Ascend/home/146730979,NewHomeSource.com,Plan-91539034,N,Y,39.861105,-82.773434
New Construction Plan,,Single Family Residential,Bristol,Canal Winchester,OH,43110,261990,4,2.5,Canal Cove,2246,,,,117,,Active,,,http://www.redfin.com/OH/Canal-Winchester/Canal-Cove/Bristol/home/161096240,NewHomeSource.com,Plan-91351014,N,Y,39.840196,-82.796909
New Construction Plan,,Single Family Residential,Martin Ray,Pickerington,OH,43147,243990,2,2.0,The Retreat at Sycamore Creek,1953,,,,125,,Active,,,http://www.redfin.com/OH/Pickerington/The-Retreat-at-Sycamore-Creek/Martin-Ray/home/146730980,NewHomeSource.com,Plan-91539033,N,Y,39.861105,-82.773434
New Construction Plan,,Single Family Residential,Windham,Canal Winchester,OH,43110,183900,4,2.5,The Meadows At Shannon Lakes,1571,,,,117,,Active,,,http://www.redfin.com/OH/Canal-Winchester/The-Meadows-At-Shannon-Lakes/Windham/home/148695471,NewHomeSource.com,Plan-91642702,N,Y,39.892598,-82.847088
New Construction Plan,,Single Family Residential,Castle Rock,Pickerington,OH,43147,231990,2,2.0,The Retreat at Sycamore Creek,1785,,,,130,,Active,,,http://www.redfin.com/OH/Pickerington/The-Retreat-at-Sycamore-Creek/Castle-Rock/home/146730981,NewHomeSource.com,Plan-91539032,N,Y,39.861105,-82.773434
New Construction Plan,,Single Family Residential,Belmont II,Canal Winchester,OH,43110,267990,4,2.5,Canal Cove,2328,,,,115,,Active,,,http://www.redfin.com/OH/Canal-Winchester/Canal-Cove/Belmont-II/home/161096241,NewHomeSource.com,Plan-91351012,N,Y,39.840196,-82.796909
New Construction Plan,,Single Family Residential,Abbeyville,Pickerington,OH,43147,226990,2,2.0,The Retreat at Sycamore Creek,1683,,,,135,,Active,,,http://www.redfin.com/OH/Pickerington/The-Retreat-at-Sycamore-Creek/Abbeyville/home/146730982,NewHomeSource.com,Plan-91539031,N,Y,39.861105,-82.773434
New Construction Plan,,Single Family Residential,Redwood,Canal Winchester,OH,43110,249990,4,2.0,Abbie Trails,2817,,,,89,,Active,,,http://www.redfin.com/OH/Canal-Winchester/Abbie-Trails/Redwood/home/148378387,NewHomeSource.com,Plan-91434800,N,Y,39.9008657,-82.8060507
New Construction Plan,,Single Family Residential,Baxley II,Canal Winchester,OH,43110,272990,3,2.0,Canal Cove,1858,,,,147,,Active,,,http://www.redfin.com/OH/Canal-Winchester/Canal-Cove/Baxley-II/home/161059818,NewHomeSource.com,Plan-91351010,N,Y,39.840196,-82.796909
New Construction Plan,,Single Family Residential,Baxley,Canal Winchester,OH,43110,263990,3,2.0,Canal Cove,1627,,,,162,,Active,,,http://www.redfin.com/OH/Canal-Winchester/Canal-Cove/Baxley/home/161096242,NewHomeSource.com,Plan-91351009,N,Y,39.840196,-82.796909
New Construction Plan,,Single Family Residential,Preston,Canal Winchester,OH,43110,244990,2,2.0,Villages At Westchester,1621,,,,151,,Active,,,http://www.redfin.com/OH/Canal-Winchester/Villages-At-Westchester/Preston/home/145301509,NewHomeSource.com,Plan-91494787,N,Y,39.836911,-82.830525
New Construction Plan,,Single Family Residential,Birmingham,Canal Winchester,OH,43110,270900,3,2.5,Hunters Glen,2686,,,,101,,Active,,,http://www.redfin.com/OH/Canal-Winchester/Hunters-Glen/Birmingham/home/144724994,NewHomeSource.com,Plan-91506895,N,Y,39.870055,-82.799735
New Construction Plan,,Single Family Residential,Berkshire,Canal Winchester,OH,43110,243900,4,2.5,Hunters Glen,1992,,,,122,,Active,,,http://www.redfin.com/OH/Canal-Winchester/Hunters-Glen/Berkshire/home/144725002,NewHomeSource.com,Plan-91506894,N,Y,39.870055,-82.799735
New Construction Plan,,Single Family Residential,Oxnard I,Canal Winchester,OH,43110,306460,4,3.5,SE Columbus Design Studio,3623,,,,85,,Active,,,http://www.redfin.com/OH/Canal-Winchester/SE-Columbus-Design-Studio/Oxnard-I/home/104227222,NewHomeSource.com,Plan-91614762,N,Y,39.845743,-82.7743481
New Construction Plan,,Single Family Residential,Charles,Canal Winchester,OH,43110,324990,3,2.5,Villages At Westchester,2457,,,,132,,Active,,,http://www.redfin.com/OH/Canal-Winchester/Villages-At-Westchester/Charles/home/166811087,NewHomeSource.com,Plan-91648712,N,Y,39.836911,-82.830525
New Construction Plan,,Single Family Residential,Portland,Canal Winchester,OH,43110,300600,4,3.5,SE Columbus Design Studio,3306,,,,91,,Active,,,http://www.redfin.com/OH/Canal-Winchester/SE-Columbus-Design-Studio/Portland/home/105931899,NewHomeSource.com,Plan-91614761,N,Y,39.845743,-82.7743481
New Construction Plan,,Single Family Residential,Keaton,Canal Winchester,OH,43110,307990,3,2.5,Villages At Westchester,2069,,,,149,,Active,,,http://www.redfin.com/OH/Canal-Winchester/Villages-At-Westchester/Keaton/home/166811088,NewHomeSource.com,Plan-91648711,N,Y,39.836911,-82.830525
New Construction Plan,,Single Family Residential,Thorndale,Canal Winchester,OH,43110,287350,4,3.5,SE Columbus Design Studio,3302,,,,87,,Active,,,http://www.redfin.com/OH/Canal-Winchester/SE-Columbus-Design-Studio/Thorndale/home/103945779,NewHomeSource.com,Plan-91614760,N,Y,39.845743,-82.7743481
New Construction Plan,,Single Family Residential,Longdale,Canal Winchester,OH,43110,319560,4,3.5,SE Columbus Design Studio,3268,,,,98,,Active,,,http://www.redfin.com/OH/Canal-Winchester/SE-Columbus-Design-Studio/Longdale/home/103987014,NewHomeSource.com,Plan-81614759,N,Y,39.845743,-82.7743481
New Construction Plan,,Single Family Residential,Pendleton II,Canal Winchester,OH,43110,273560,4,2.5,SE Columbus Design Studio,3216,,,,85,,Active,,,http://www.redfin.com/OH/Canal-Winchester/SE-Columbus-Design-Studio/Pendleton-II/home/102457358,NewHomeSource.com,Plan-81614758,N,Y,39.845743,-82.7743481
New Construction Plan,,Single Family Residential,Charlottesville,Canal Winchester,OH,43110,269400,4,2.5,SE Columbus Design Studio,2905,,,,93,,Active,,,http://www.redfin.com/OH/Canal-Winchester/SE-Columbus-Design-Studio/Charlottesville/home/105931900,NewHomeSource.com,Plan-81614756,N,Y,39.845743,-82.7743481
New Construction Plan,,Single Family Residential,Dover,Canal Winchester,OH,43110,261390,4,2.5,SE Columbus Design Studio,3036,,,,86,,Active,,,http://www.redfin.com/OH/Canal-Winchester/SE-Columbus-Design-Studio/Dover/home/102457359,NewHomeSource.com,Plan-81614757,N,Y,39.845743,-82.7743481
New Construction Plan,,Single Family Residential,Denali,Canal Winchester,OH,43110,279990,4,2.5,Villages At Westchester,2957,,,,95,,Active,,,http://www.redfin.com/OH/Canal-Winchester/Villages-At-Westchester/Denali/home/143318424,NewHomeSource.com,Plan-81422256,N,Y,39.836911,-82.830525
New Construction Plan,,Single Family Residential,Pendleton,Canal Winchester,OH,43110,256930,3,2.5,SE Columbus Design Studio,2850,,,,90,,Active,,,http://www.redfin.com/OH/Canal-Winchester/SE-Columbus-Design-Studio/Pendleton/home/102457360,NewHomeSource.com,Plan-81614755,N,Y,39.845743,-82.7743481
New Construction Plan,,Single Family Residential,Redwood,Canal Winchester,OH,43110,277990,4,2.0,Villages At Westchester,2817,,,,99,,Active,,,http://www.redfin.com/OH/Canal-Winchester/Villages-At-Westchester/Redwood/home/143318425,NewHomeSource.com,Plan-81422255,N,Y,39.836911,-82.830525
New Construction Plan,,Single Family Residential,Wright,Canal Winchester,OH,43110,221010,4,2.5,SE Columbus Design Studio,2720,,,,81,,Active,,,http://www.redfin.com/OH/Canal-Winchester/SE-Columbus-Design-Studio/Wright/home/109457146,NewHomeSource.com,Plan-81614754,N,Y,39.845743,-82.7743481
New Construction Plan,,Single Family Residential,Cumberland,Canal Winchester,OH,43110,262990,3,2.0,Villages At Westchester,2439,,,,108,,Active,,,http://www.redfin.com/OH/Canal-Winchester/Villages-At-Westchester/Cumberland/home/143318426,NewHomeSource.com,Plan-81422254,N,Y,39.836911,-82.830525
New Construction Plan,,Single Family Residential,Baltimore,Canal Winchester,OH,43110,234910,3,2.5,SE Columbus Design Studio,2692,,,,87,,Active,,,http://www.redfin.com/OH/Canal-Winchester/SE-Columbus-Design-Studio/Baltimore/home/104227223,NewHomeSource.com,Plan-81614753,N,Y,39.845743,-82.7743481
New Construction Plan,,Single Family Residential,Yosemite,Canal Winchester,OH,43110,255990,3,2.5,Villages At Westchester,2258,,,,113,,Active,,,http://www.redfin.com/OH/Canal-Winchester/Villages-At-Westchester/Yosemite/home/143318427,NewHomeSource.com,Plan-81422253,N,Y,39.836911,-82.830525
New Construction Plan,,Single Family Residential,Philadelphia,Canal Winchester,OH,43110,212000,4,2.5,SE Columbus Design Studio,2623,,,,81,,Active,,,http://www.redfin.com/OH/Canal-Winchester/SE-Columbus-Design-Studio/Philadelphia/home/102457377,NewHomeSource.com,Plan-81614752,N,Y,39.845743,-82.7743481
New Construction Plan,,Single Family Residential,Abington,Canal Winchester,OH,43110,204900,3,2.5,The Meadows At Shannon Lakes,2310,,,,89,,Active,,,http://www.redfin.com/OH/Canal-Winchester/The-Meadows-At-Shannon-Lakes/Abington/home/148695473,NewHomeSource.com,Plan-81430582,N,Y,39.892598,-82.847088
New Construction Plan,,Single Family Residential,Cumberland,Canal Winchester,OH,43110,237990,3,2.0,Abbie Trails,2439,,,,98,,Active,,,http://www.redfin.com/OH/Canal-Winchester/Abbie-Trails/Cumberland/home/102535672,NewHomeSource.com,Plan-81419942,N,Y,39.9008657,-82.8060507
New Construction Plan,,Single Family Residential,Greenbriar,Canal Winchester,OH,43110,250990,3,2.0,Villages At Westchester,1983,,,,127,,Active,,,http://www.redfin.com/OH/Canal-Winchester/Villages-At-Westchester/Greenbriar/home/143318428,NewHomeSource.com,Plan-81422252,N,Y,39.836911,-82.830525
New Construction Plan,,Single Family Residential,McKinley,Canal Winchester,OH,43110,226230,4,3.0,SE Columbus Design Studio,2591,,,,87,,Active,,,http://www.redfin.com/OH/Canal-Winchester/SE-Columbus-Design-Studio/McKinley/home/102646397,NewHomeSource.com,Plan-81614751,N,Y,39.845743,-82.7743481
New Construction Plan,,Single Family Residential,Bradford,Canal Winchester,OH,43110,185900,3,2.0,The Meadows At Shannon Lakes,1527,,,,122,,Active,,,http://www.redfin.com/OH/Canal-Winchester/The-Meadows-At-Shannon-Lakes/Bradford/home/148491897,NewHomeSource.com,Plan-81477341,N,Y,39.892598,-82.847088
New Construction Plan,,Single Family Residential,Faulkner,Canal Winchester,OH,43110,261240,4,2.5,SE Columbus Design Studio,2585,,,,101,,Active,,,http://www.redfin.com/OH/Canal-Winchester/SE-Columbus-Design-Studio/Faulkner/home/102457361,NewHomeSource.com,Plan-81614750,N,Y,39.845743,-82.7743481
New Construction Plan,,Single Family Residential,Yosemite,Canal Winchester,OH,43110,232990,3,2.5,Abbie Trails,2258,,,,103,,Active,,,http://www.redfin.com/OH/Canal-Winchester/Abbie-Trails/Yosemite/home/102535673,NewHomeSource.com,Plan-81419940,N,Y,39.9008657,-82.8060507
New Construction Plan,,Single Family Residential,Appleton,Canal Winchester,OH,43110,194990,3,2.0,Abbie Trails,1311,,,,149,,Active,,,http://www.redfin.com/OH/Canal-Winchester/Abbie-Trails/Appleton/home/148378386,NewHomeSource.com,Plan-81470900,N,Y,39.9008657,-82.8060507
New Construction Plan,,Single Family Residential,Beachwood,Canal Winchester,OH,43110,205730,3,2.5,SE Columbus Design Studio,2464,,,,83,,Active,,,http://www.redfin.com/OH/Canal-Winchester/SE-Columbus-Design-Studio/Beachwood/home/102457373,NewHomeSource.com,Plan-81614749,N,Y,39.845743,-82.7743481
New Construction Plan,,Single Family Residential,Greenbriar,Canal Winchester,OH,43110,227990,3,2.0,Abbie Trails,1983,,,,115,,Active,,,http://www.redfin.com/OH/Canal-Winchester/Abbie-Trails/Greenbriar/home/105416955,NewHomeSource.com,Plan-81419939,N,Y,39.9008657,-82.8060507
New Construction Plan,,Single Family Residential,Gable,Canal Winchester,OH,43110,229270,4,2.0,SE Columbus Design Studio,2442,,,,94,,Active,,,http://www.redfin.com/OH/Canal-Winchester/SE-Columbus-Design-Studio/Gable/home/102457362,NewHomeSource.com,Plan-81614748,N,Y,39.845743,-82.7743481
New Construction Plan,,Townhouse,Astoria,Pickerington,OH,43147,155990,2,2.5,Sycamore Park,1540,,,,101,,Active,,,http://www.redfin.com/OH/Pickerington/Sycamore-Park/Astoria/home/145340634,NewHomeSource.com,Plan-81539008,N,Y,39.860526,-82.773082
New Construction Plan,,Single Family Residential,Morris,Canal Winchester,OH,43110,325990,4,2.0,Villages At Westchester,2763,,,,118,,Active,,,http://www.redfin.com/OH/Canal-Winchester/Villages-At-Westchester/Morris/home/113978654,NewHomeSource.com,Plan-81420778,N,Y,39.836911,-82.830525
New Construction Plan,,Single Family Residential,Dandridge,Canal Winchester,OH,43110,226030,4,2.0,SE Columbus Design Studio,2420,,,,93,,Active,,,http://www.redfin.com/OH/Canal-Winchester/SE-Columbus-Design-Studio/Dandridge/home/102457364,NewHomeSource.com,Plan-81614747,N,Y,39.845743,-82.7743481
New Construction Plan,,Townhouse,Brighton,Pickerington,OH,43147,153990,2,2.5,Sycamore Park,1498,,,,103,,Active,,,http://www.redfin.com/OH/Pickerington/Sycamore-Park/Brighton/home/145340635,NewHomeSource.com,Plan-81539007,N,Y,39.860526,-82.773082
New Construction Plan,,Single Family Residential,Winchester,Canal Winchester,OH,43110,221990,3,2.5,Abbie Trails,1924,,,,115,,Active,,,http://www.redfin.com/OH/Canal-Winchester/Abbie-Trails/Winchester/home/102535676,NewHomeSource.com,Plan-81419937,N,Y,39.9008657,-82.8060507
New Construction Plan,,Single Family Residential,Whitman,Canal Winchester,OH,43110,302990,4,2.0,Villages At Westchester,2313,,,,131,,Active,,,http://www.redfin.com/OH/Canal-Winchester/Villages-At-Westchester/Whitman/home/113978655,NewHomeSource.com,Plan-81420777,N,Y,39.836911,-82.830525
New Construction Plan,,Single Family Residential,Fairfield,Canal Winchester,OH,43110,316990,4,2.5,Canal Cove,2739,,,,116,,Active,,,http://www.redfin.com/OH/Canal-Winchester/Canal-Cove/Fairfield/home/166833598,NewHomeSource.com,Plan-81648818,N,Y,39.840196,-82.796909
New Construction Plan,,Single Family Residential,Rockford,Canal Winchester,OH,43110,224900,3,2.5,SE Columbus Design Studio,2379,,,,95,,Active,,,http://www.redfin.com/OH/Canal-Winchester/SE-Columbus-Design-Studio/Rockford/home/103941993,NewHomeSource.com,Plan-81614746,N,Y,39.845743,-82.7743481
New Construction Plan,,Townhouse,Hampton,Pickerington,OH,43147,154990,2,2.5,Sycamore Park,1498,,,,103,,Active,,,http://www.redfin.com/OH/Pickerington/Sycamore-Park/Hampton/home/145340636,NewHomeSource.com,Plan-81539006,N,Y,39.860526,-82.773082
New Construction Plan,,Single Family Residential,Oakwood,Canal Winchester,OH,43110,197840,4,2.5,SE Columbus Design Studio,2368,,,,84,,Active,,,http://www.redfin.com/OH/Canal-Winchester/SE-Columbus-Design-Studio/Oakwood/home/102457375,NewHomeSource.com,Plan-81614745,N,Y,39.845743,-82.7743481
New Construction Plan,,Townhouse,Chelsea,Pickerington,OH,43147,149990,2,2.5,Sycamore Park,1450,,,,103,,Active,,,http://www.redfin.com/OH/Pickerington/Sycamore-Park/Chelsea/home/145340637,NewHomeSource.com,Plan-81539005,N,Y,39.860526,-82.773082
New Construction Plan,,Single Family Residential,Olvera II,Canal Winchester,OH,43110,195950,4,2.5,SE Columbus Design Studio,2351,,,,83,,Active,,,http://www.redfin.com/OH/Canal-Winchester/SE-Columbus-Design-Studio/Olvera-II/home/108595445,NewHomeSource.com,Plan-81614744,N,Y,39.845743,-82.7743481
New Construction Plan,,Single Family Residential,New Hampshire,Canal Winchester,OH,43110,194150,4,2.5,SE Columbus Design Studio,2288,,,,85,,Active,,,http://www.redfin.com/OH/Canal-Winchester/SE-Columbus-Design-Studio/New-Hampshire/home/102457371,NewHomeSource.com,Plan-81614743,N,Y,39.845743,-82.7743481
New Construction Plan,,Single Family Residential,Charlotte,Canal Winchester,OH,43110,203990,2,2.0,Abbie Trails,1237,,,,165,,Active,,,http://www.redfin.com/OH/Canal-Winchester/Abbie-Trails/Charlotte/home/102535681,NewHomeSource.com,Plan-81419933,N,Y,39.9008657,-82.8060507
New Construction Plan,,Single Family Residential,Kingston,Canal Winchester,OH,43110,187230,3,2.5,SE Columbus Design Studio,2213,,,,85,,Active,,,http://www.redfin.com/OH/Canal-Winchester/SE-Columbus-Design-Studio/Kingston/home/102646395,NewHomeSource.com,Plan-81614742,N,Y,39.845743,-82.7743481
New Construction Plan,,Single Family Residential,Carrington,Canal Winchester,OH,43110,192550,4,2.5,SE Columbus Design Studio,2175,,,,89,,Active,,,http://www.redfin.com/OH/Canal-Winchester/SE-Columbus-Design-Studio/Carrington/home/102646385,NewHomeSource.com,Plan-81614741,N,Y,39.845743,-82.7743481
New Construction Plan,,Single Family Residential,Blair,Canal Winchester,OH,43110,352990,4,2.0,Villages At Westchester,3029,,,,117,,Active,,,http://www.redfin.com/OH/Canal-Winchester/Villages-At-Westchester/Blair/home/113978661,NewHomeSource.com,Plan-81420771,N,Y,39.836911,-82.830525
New Construction Plan,,Single Family Residential,Delaney,Canal Winchester,OH,43110,290990,3,2.5,Villages At Westchester,1782,,,,163,,Active,,,http://www.redfin.com/OH/Canal-Winchester/Villages-At-Westchester/Delaney/home/160799108,NewHomeSource.com,Plan-81619781,N,Y,39.836911,-82.830525
New Construction Plan,,Single Family Residential,Hartland,Canal Winchester,OH,43110,209330,3,2.0,SE Columbus Design Studio,2175,,,,96,,Active,,,http://www.redfin.com/OH/Canal-Winchester/SE-Columbus-Design-Studio/Hartland/home/102457374,NewHomeSource.com,Plan-81614740,N,Y,39.845743,-82.7743481
New Construction Plan,,Single Family Residential,Chatham,Canal Winchester,OH,43110,269900,3,2.5,Hunters Glen,2572,,,,105,,Active,,,http://www.redfin.com/OH/Canal-Winchester/Hunters-Glen/Chatham/home/144724990,NewHomeSource.com,Plan-81381010,N,Y,39.870055,-82.799735
New Construction Plan,,Single Family Residential,Calvin,Canal Winchester,OH,43110,311990,3,2.0,Villages At Westchester,2069,,,,151,,Active,,,http://www.redfin.com/OH/Canal-Winchester/Villages-At-Westchester/Calvin/home/160799110,NewHomeSource.com,Plan-81619780,N,Y,39.836911,-82.830525
New Construction Plan,,Single Family Residential,Turner,Canal Winchester,OH,43110,195070,3,2.5,SE Columbus Design Studio,2132,,,,91,,Active,,,http://www.redfin.com/OH/Canal-Winchester/SE-Columbus-Design-Studio/Turner/home/105433792,NewHomeSource.com,Plan-81614739,N,Y,39.845743,-82.7743481
New Construction Plan,,Single Family Residential,Newcastle,Canal Winchester,OH,43110,259900,4,2.5,Hunters Glen,2249,,,,116,,Active,,,http://www.redfin.com/OH/Canal-Winchester/Hunters-Glen/Newcastle/home/144724991,NewHomeSource.com,Plan-81381009,N,Y,39.870055,-82.799735
New Construction Plan,,Single Family Residential,Turner,Canal Winchester,OH,43110,322990,3,2.5,Villages At Westchester,2492,,,,130,,Active,,,http://www.redfin.com/OH/Canal-Winchester/Villages-At-Westchester/Turner/home/113978663,NewHomeSource.com,Plan-81420769,N,Y,39.836911,-82.830525
New Construction Plan,,Single Family Residential,Springfield,Canal Winchester,OH,43110,298990,2,2.0,Villages At Westchester,1805,,,,166,,Active,,,http://www.redfin.com/OH/Canal-Winchester/Villages-At-Westchester/Springfield/home/160799111,NewHomeSource.com,Plan-81619779,N,Y,39.836911,-82.830525
New Construction Plan,,Single Family Residential,Sedgwick,Canal Winchester,OH,43110,197480,4,2.0,SE Columbus Design Studio,2043,,,,97,,Active,,,http://www.redfin.com/OH/Canal-Winchester/SE-Columbus-Design-Studio/Sedgwick/home/102457366,NewHomeSource.com,Plan-81614738,N,Y,39.845743,-82.7743481
New Construction Plan,,Single Family Residential,Knoxville,Canal Winchester,OH,43110,269900,4,2.5,Hunters Glen,2322,,,,116,,Active,,,http://www.redfin.com/OH/Canal-Winchester/Hunters-Glen/Knoxville/home/144724993,NewHomeSource.com,Plan-81381008,N,Y,39.870055,-82.799735
New Construction Plan,,Single Family Residential,Danville,Canal Winchester,OH,43110,219990,3,2.5,Abbie Trails,1629,,,,135,,Active,,,http://www.redfin.com/OH/Canal-Winchester/Abbie-Trails/Danville/home/102535678,NewHomeSource.com,Plan-81570918,N,Y,39.9008657,-82.8060507
New Construction Plan,,Single Family Residential,Foster,Canal Winchester,OH,43110,321990,4,2.0,Villages At Westchester,2954,,,,109,,Active,,,http://www.redfin.com/OH/Canal-Winchester/Villages-At-Westchester/Foster/home/113978664,NewHomeSource.com,Plan-81420768,N,Y,39.836911,-82.830525
New Construction Plan,,Single Family Residential,Bennett,Canal Winchester,OH,43110,192740,4,2.0,SE Columbus Design Studio,1993,,,,97,,Active,,,http://www.redfin.com/OH/Canal-Winchester/SE-Columbus-Design-Studio/Bennett/home/102457367,NewHomeSource.com,Plan-81614737,N,Y,39.845743,-82.7743481
New Construction Plan,,Single Family Residential,Grandin,Canal Winchester,OH,43110,330990,4,2.0,Villages At Westchester,2711,,,,122,,Active,,,http://www.redfin.com/OH/Canal-Winchester/Villages-At-Westchester/Grandin/home/113978665,NewHomeSource.com,Plan-81420767,N,Y,39.836911,-82.830525
New Construction Plan,,Single Family Residential,Prescott,Canal Winchester,OH,43110,189130,3,2.5,SE Columbus Design Studio,1992,,,,95,,Active,,,http://www.redfin.com/OH/Canal-Winchester/SE-Columbus-Design-Studio/Prescott/home/108383319,NewHomeSource.com,Plan-81614736,N,Y,39.845743,-82.7743481
New Construction Plan,,Single Family Residential,Quinn,Canal Winchester,OH,43110,325990,4,2.0,Villages At Westchester,2644,,,,123,,Active,,,http://www.redfin.com/OH/Canal-Winchester/Villages-At-Westchester/Quinn/home/113978666,NewHomeSource.com,Plan-81420766,N,Y,39.836911,-82.830525
New Construction Plan,,Single Family Residential,Chandler,Canal Winchester,OH,43110,190120,3,2.0,SE Columbus Design Studio,1917,,,,99,,Active,,,http://www.redfin.com/OH/Canal-Winchester/SE-Columbus-Design-Studio/Chandler/home/102457368,NewHomeSource.com,Plan-81614735,N,Y,39.845743,-82.7743481
New Construction Plan,,Single Family Residential,Newbury,Canal Winchester,OH,43110,267900,4,2.5,Hunters Glen,2677,,,,100,,Active,,,http://www.redfin.com/OH/Canal-Winchester/Hunters-Glen/Newbury/home/144724995,NewHomeSource.com,Plan-81381005,N,Y,39.870055,-82.799735
New Construction Plan,,Single Family Residential,Avery,Canal Winchester,OH,43110,333990,4,2.0,Villages At Westchester,2535,,,,132,,Active,,,http://www.redfin.com/OH/Canal-Winchester/Villages-At-Westchester/Avery/home/146167728,NewHomeSource.com,Plan-81523805,N,Y,39.8369107,-82.83052504
New Construction Plan,,Single Family Residential,Taft,Canal Winchester,OH,43110,187110,3,2.0,SE Columbus Design Studio,1852,,,,101,,Active,,,http://www.redfin.com/OH/Canal-Winchester/SE-Columbus-Design-Studio/Taft/home/110308780,NewHomeSource.com,Plan-81614733,N,Y,39.845743,-82.7743481
New Construction Plan,,Single Family Residential,Cape Charles,Canal Winchester,OH,43110,193700,3,2.0,SE Columbus Design Studio,1878,,,,103,,Active,,,http://www.redfin.com/OH/Canal-Winchester/SE-Columbus-Design-Studio/Cape-Charles/home/113851935,NewHomeSource.com,Plan-81614734,N,Y,39.845743,-82.7743481
New Construction Plan,,Single Family Residential,Somerset,Canal Winchester,OH,43110,258900,3,2.5,Hunters Glen,2380,,,,109,,Active,,,http://www.redfin.com/OH/Canal-Winchester/Hunters-Glen/Somerset/home/144724997,NewHomeSource.com,Plan-81381003,N,Y,39.870055,-82.799735
New Construction Plan,,Single Family Residential,Ellington,Canal Winchester,OH,43110,263900,3,2.5,Hunters Glen,2126,,,,124,,Active,,,http://www.redfin.com/OH/Canal-Winchester/Hunters-Glen/Ellington/home/144724996,NewHomeSource.com,Plan-81381004,N,Y,39.870055,-82.799735
New Construction Plan,,Single Family Residential,Carnegie,Canal Winchester,OH,43110,180930,3,2.0,SE Columbus Design Studio,1750,,,,103,,Active,,,http://www.redfin.com/OH/Canal-Winchester/SE-Columbus-Design-Studio/Carnegie/home/102457370,NewHomeSource.com,Plan-81614732,N,Y,39.845743,-82.7743481
New Construction Plan,,Single Family Residential,Maple,Canal Winchester,OH,43110,203990,2,2.0,Abbie Trails,1298,,,,157,,Active,,,http://www.redfin.com/OH/Canal-Winchester/Abbie-Trails/Maple/home/148378380,NewHomeSource.com,Plan-81530872,N,Y,39.9008657,-82.8060507
New Construction Plan,,Single Family Residential,Hawthorne II,Canal Winchester,OH,43110,299990,3,2.0,Canal Cove,2182,,,,137,,Active,,,http://www.redfin.com/OH/Canal-Winchester/Canal-Cove/Hawthorne-II/home/161096247,NewHomeSource.com,Plan-81359302,N,Y,39.840196,-82.796909
New Construction Plan,,Single Family Residential,Lafayette II,Canal Winchester,OH,43110,245990,3,2.0,Canal Cove,1583,,,,155,,Active,,,http://www.redfin.com/OH/Canal-Winchester/Canal-Cove/Lafayette-II/home/161580333,NewHomeSource.com,Plan-81624532,N,Y,39.840196,-82.796909
New Construction Plan,,Single Family Residential,Pittsburgh,Canal Winchester,OH,43110,166320,3,2.0,SE Columbus Design Studio,1716,,,,97,,Active,,,http://www.redfin.com/OH/Canal-Winchester/SE-Columbus-Design-Studio/Pittsburgh/home/113622888,NewHomeSource.com,Plan-81614731,N,Y,39.845743,-82.7743481
New Construction Plan,,Single Family Residential,Jordan,Canal Winchester,OH,43110,252900,3,2.0,Hunters Glen,1811,,,,140,,Active,,,http://www.redfin.com/OH/Canal-Winchester/Hunters-Glen/Jordan/home/144724998,NewHomeSource.com,Plan-81381001,N,Y,39.870055,-82.799735
New Construction Plan,,Single Family Residential,Glenn,Canal Winchester,OH,43110,176980,3,2.0,SE Columbus Design Studio,1658,,,,107,,Active,,,http://www.redfin.com/OH/Canal-Winchester/SE-Columbus-Design-Studio/Glenn/home/109481148,NewHomeSource.com,Plan-81614730,N,Y,39.845743,-82.7743481
New Construction Plan,,Single Family Residential,Stratford,Canal Winchester,OH,43110,259900,3,2.0,Hunters Glen,1674,,,,155,,Active,,,http://www.redfin.com/OH/Canal-Winchester/Hunters-Glen/Stratford/home/144724999,NewHomeSource.com,Plan-81381000,N,Y,39.870055,-82.799735
New Construction Plan,,Single Family Residential,Concord,Canal Winchester,OH,43110,180170,3,2.0,SE Columbus Design Studio,1638,,,,110,,Active,,,http://www.redfin.com/OH/Canal-Winchester/SE-Columbus-Design-Studio/Concord/home/102646396,NewHomeSource.com,Plan-81614729,N,Y,39.845743,-82.7743481
New Construction Plan,,Single Family Residential,Preston,Canal Winchester,OH,43110,203900,4,2.5,The Meadows At Shannon Lakes,2565,,,,79,,Active,,,http://www.redfin.com/OH/Canal-Winchester/The-Meadows-At-Shannon-Lakes/Preston/home/148695474,NewHomeSource.com,Plan-80925999,N,Y,39.892598,-82.847088
New Construction Plan,,Single Family Residential,Westport,Canal Winchester,OH,43110,246900,3,2.0,Hunters Glen,1536,,,,161,,Active,,,http://www.redfin.com/OH/Canal-Winchester/Hunters-Glen/Westport/home/144725000,NewHomeSource.com,Plan-81380999,N,Y,39.870055,-82.799735
New Construction Plan,,Single Family Residential,Maya,Canal Winchester,OH,43110,172520,3,2.0,SE Columbus Design Studio,1506,,,,115,,Active,,,http://www.redfin.com/OH/Canal-Winchester/SE-Columbus-Design-Studio/Maya/home/109457147,NewHomeSource.com,Plan-81614728,N,Y,39.845743,-82.7743481
New Construction Plan,,Single Family Residential,Marquette,Canal Winchester,OH,43110,194900,3,2.5,The Meadows At Shannon Lakes,2245,,,,87,,Active,,,http://www.redfin.com/OH/Canal-Winchester/The-Meadows-At-Shannon-Lakes/Marquette/home/148695475,NewHomeSource.com,Plan-80925998,N,Y,39.892598,-82.847088
New Construction Plan,,Single Family Residential,Amelia,Canal Winchester,OH,43110,206900,4,2.0,The Meadows At Shannon Lakes,2246,,,,92,,Active,,,http://www.redfin.com/OH/Canal-Winchester/The-Meadows-At-Shannon-Lakes/Amelia/home/148695472,NewHomeSource.com,Plan-81433568,N,Y,39.892598,-82.847088
New Construction Plan,,Single Family Residential,Rockford,Canal Winchester,OH,43110,242900,3,2.5,Hunters Glen,2035,,,,119,,Active,,,http://www.redfin.com/OH/Canal-Winchester/Hunters-Glen/Rockford/home/144725001,NewHomeSource.com,Plan-81380998,N,Y,39.870055,-82.799735
New Construction Plan,,Single Family Residential,Covington,Canal Winchester,OH,43110,165000,3,2.0,SE Columbus Design Studio,1482,,,,111,,Active,,,http://www.redfin.com/OH/Canal-Winchester/SE-Columbus-Design-Studio/Covington/home/102646389,NewHomeSource.com,Plan-81614727,N,Y,39.845743,-82.7743481
New Construction Plan,,Single Family Residential,Danielle,Canal Winchester,OH,43110,155220,3,2.0,SE Columbus Design Studio,1370,,,,113,,Active,,,http://www.redfin.com/OH/Canal-Winchester/SE-Columbus-Design-Studio/Danielle/home/102646384,NewHomeSource.com,Plan-81614726,N,Y,39.845743,-82.7743481
New Construction Plan,,Single Family Residential,Brooklynn,Canal Winchester,OH,43110,155210,3,2.0,SE Columbus Design Studio,1362,,,,114,,Active,,,http://www.redfin.com/OH/Canal-Winchester/SE-Columbus-Design-Studio/Brooklynn/home/102646386,NewHomeSource.com,Plan-81614725,N,Y,39.845743,-82.7743481
New Construction Plan,,Single Family Residential,Dallas,Canal Winchester,OH,43110,238900,4,2.5,Hunters Glen,1834,,,,130,,Active,,,http://www.redfin.com/OH/Canal-Winchester/Hunters-Glen/Dallas/home/144725005,NewHomeSource.com,Plan-81380995,N,Y,39.870055,-82.799735
New Construction Plan,,Single Family Residential,Beacon,Canal Winchester,OH,43110,239990,2,2.0,Villages At Westchester,1419,,,,169,,Active,,,http://www.redfin.com/OH/Canal-Winchester/Villages-At-Westchester/Beacon/home/145334279,NewHomeSource.com,Plan-81498665,N,Y,39.836911,-82.830525
New Construction Plan,,Single Family Residential,Avella,Canal Winchester,OH,43110,233900,2,2.0,Hunters Glen,1403,,,,167,,Active,,,http://www.redfin.com/OH/Canal-Winchester/Hunters-Glen/Avella/home/144725007,NewHomeSource.com,Plan-81380994,N,Y,39.870055,-82.799735
New Construction Plan,,Single Family Residential,Magnolia,Canal Winchester,OH,43110,292990,3,2.0,Villages At Westchester,1621,,,,181,,Active,,,http://www.redfin.com/OH/Canal-Winchester/Villages-At-Westchester/Magnolia/home/145310920,NewHomeSource.com,Plan-81498664,N,Y,39.836911,-82.830525
New Construction Plan,,Single Family Residential,Winchester,Canal Winchester,OH,43110,321990,4,2.5,Canal Cove,3058,,,,105,,Active,,,http://www.redfin.com/OH/Canal-Winchester/Canal-Cove/Winchester/home/161096249,NewHomeSource.com,Plan-81351034,N,Y,39.840196,-82.796909
New Construction Plan,,Single Family Residential,Wesley,Canal Winchester,OH,43110,220990,3,2.5,Abbie Trails,1842,,,,120,,Active,,,http://www.redfin.com/OH/Canal-Winchester/Abbie-Trails/Wesley/home/148378382,NewHomeSource.com,Plan-81498592,N,Y,39.9008657,-82.8060507
New Construction Plan,,Single Family Residential,Beacon,Canal Winchester,OH,43110,210990,2,2.0,Abbie Trails,1419,,,,149,,Active,,,http://www.redfin.com/OH/Canal-Winchester/Abbie-Trails/Beacon/home/148378381,NewHomeSource.com,Plan-81498593,N,Y,39.9008657,-82.8060507
New Construction Plan,,Single Family Residential,West Haven,Canal Winchester,OH,43110,306990,3,2.5,Canal Cove,2902,,,,106,,Active,,,http://www.redfin.com/OH/Canal-Winchester/Canal-Cove/West-Haven/home/161096250,NewHomeSource.com,Plan-81351033,N,Y,39.840196,-82.796909
New Construction Plan,,Single Family Residential,Stockton,Canal Winchester,OH,43110,301990,3,2.5,Canal Cove,2782,,,,109,,Active,,,http://www.redfin.com/OH/Canal-Winchester/Canal-Cove/Stockton/home/160911393,NewHomeSource.com,Plan-81351031,N,Y,39.840196,-82.796909
