SALE TYPE,SOLD DATE,PROPERTY TYPE,ADDRESS,CITY,STATE OR PROVINCE,ZIP OR POSTAL CODE,PRICE,BEDS,BATHS,LOCATION,SQUARE FEET,LOT SIZE,YEAR BUILT,DAYS ON MARKET,$/SQUARE FEET,HOA/MONTH,STATUS,NEXT OPEN HOUSE START TIME,NEXT OPEN HOUSE END TIME,URL (SEE http://www.redfin.com/buy-a-home/comparative-market-analysis FOR INFO ON PRICING),SOURCE,MLS#,FAVORITE,INTERESTED,LATITUDE,LONGITUDE
MLS Listing,,Condo/Co-op,6401 Rustic Ridge Cir NW #27,Massillon,OH,44646,314900,3,2.0,Mudbrook Village,2618,,2013,1,120,177,Active,,,http://www.redfin.com/OH/Massillon/6401-Rustic-Ridge-Cir-NW-44646/unit-27/home/66483722,Yes MLS,4118142,N,Y,40.8738257,-81.5067925
MLS Listing,,Single Family Residential,2114 Darby Dr NW,Massillon,OH,44646,275000,4,2.5,Devan Heights,3189,33541,1964,1,86,,Active,,,http://www.redfin.com/OH/Massillon/2114-Darby-Dr-NE-44646/home/79878498,Yes MLS,4118900,N,Y,40.8231984,-81.5074571
MLS Listing,,Single Family Residential,1701 Windsor Rd NE,Massillon,OH,44646,124900,3,1.5,Massillon,1080,,1958,1,116,,Active,,,http://www.redfin.com/OH/Massillon/1701-Windsor-Rd-NE-44646/home/75776118,Yes MLS,4118700,N,Y,40.8164503,-81.5140278
MLS Listing,,Single Family Residential,5088 Glen Elm Cir NW,Massillon,OH,44646,467000,3,3.0,Scotsbury Glen #1,3196,16117,2019,2,146,10,Active,,,http://www.redfin.com/OH/Massillon/5088-Glen-Elm-Cir-NW-44646/home/163627791,Yes MLS,4118327,N,Y,40.8550923,-81.511303
MLS Listing,,Condo/Co-op,3650 Perry Dr NW,Massillon,OH,44646,149500,2,1.5,Woodlake Condo,1754,,1982,2,85,240,Active,,,http://www.redfin.com/OH/Massillon/3650-Perry-Dr-NW-44646/unit-27/home/79905305,Yes MLS,4118484,N,Y,40.828172,-81.486284
MLS Listing,,Single Family Residential,932 11th St NE,Massillon,OH,44646,139900,3,1.5,Massillon,1476,9147,1926,3,95,,Active,,,http://www.redfin.com/OH/Massillon/932-11th-St-NE-44646/home/66562711,Yes MLS,4118212,N,Y,40.8076688,-81.5108872
MLS Listing,,Single Family Residential,6555 Cliffside Ave NW,Massillon,OH,44646,359900,3,3.5,Mudbrook Village 01,3516,21780,2005,3,102,13,Active,,,http://www.redfin.com/OH/Massillon/6555-Cliffside-Ave-NW-44646/home/100788001,Yes MLS,4117801,N,Y,40.8760957,-81.5088506
MLS Listing,,Condo/Co-op,8817 Serenity Dr NW,Massillon,OH,44646,319900,2,2.0,Serenity Shores Condo,1609,,2018,3,199,312,Active,,,http://www.redfin.com/OH/Massillon/8817-Serenity-Dr-NW-44646/unit-19/home/100809984,Yes MLS,4118065,N,Y,40.8594047,-81.5140632
MLS Listing,,Townhouse,604 North Ave NE,Massillon,OH,44646,40000,2,2.0,Massillon,2710,4791,1925,3,15,,Active,,,http://www.redfin.com/OH/Massillon/604-North-Ave-NE-44646/home/163653942,Yes MLS,4118066,N,Y,40.80035,-81.516414
MLS Listing,,Single Family Residential,7171 Hoverland Ave NW,Massillon,OH,44646,139900,2,1.0,Massillon,1146,20037,1964,3,122,,Active,,,http://www.redfin.com/OH/Massillon/7171-Hoverland-Ave-NW-44646/home/75755623,Yes MLS,4117184,N,Y,40.8256498,-81.485059
MLS Listing,,Single Family Residential,348 Westland Ave NW,Massillon,OH,44646,89900,3,1.5,Westland Park,1272,8276,1941,3,71,,Active,,,http://www.redfin.com/OH/Massillon/348-Westland-Ave-NW-44646/home/75784218,Yes MLS,4117967,N,Y,40.797059,-81.456384
MLS Listing,,Single Family Residential,3122 Lynch St SW,Massillon,OH,44646,94900,2,1.5,Crescent Gardens,1262,7840,1948,3,75,,Pre On-Market,,,http://www.redfin.com/OH/Massillon/3122-Lynch-St-SW-44646/home/80027948,Yes MLS,4117931,N,Y,40.7943781,-81.4765466
MLS Listing,,Single Family Residential,2840 Roanoke St NW,Massillon,OH,44646,174900,4,2.0,Plymouth Knolls,1950,15245,1965,4,90,,Active,,,http://www.redfin.com/OH/Massillon/2840-Roanoke-St-NW-44646/home/100804681,Yes MLS,4117735,N,Y,40.8198257,-81.4803424
MLS Listing,,Single Family Residential,2175 Eagle Cir,Massillon,OH,44646,339900,5,3.0,Augusta Lakes,3308,22215,2003,4,103,6,Pre On-Market,July-28-2019 02:00 PM,July-28-2019 04:00 PM,http://www.redfin.com/OH/Massillon/2175-Eagles-Cir-SE-44646/home/66280544,Yes MLS,4117738,N,Y,40.7784411,-81.4932632
MLS Listing,,Condo/Co-op,2400 Pebble Beach Dr S,Massillon,OH,44646,195000,3,3.0,St Andrews Condo,2841,,2001,4,69,215,Active,,,http://www.redfin.com/OH/Massillon/2400-Pebble-Beach-Dr-44646/home/75744414,Yes MLS,4117674,N,Y,40.7670336,-81.4928129
MLS Listing,,Vacant Land,Roselawn,Massillon,OH,44646,47900,,,Massillon,,,,4,,,Active,,,http://www.redfin.com/OH/Massillon/Roselawn-Ave-SW-44646/home/75809039,Yes MLS,4117381,N,Y,40.746526,-81.482488
MLS Listing,,Single Family Residential,41 Pearl Ave SE,Massillon,OH,44646,69900,3,1.0,Massillon,1186,3920,1924,6,59,,Active,,,http://www.redfin.com/OH/Massillon/41-Pearl-Ave-SE-44646/home/66323049,Yes MLS,4117235,N,Y,40.7800721,-81.5142743
MLS Listing,,Condo/Co-op,8677 Dublin Ridge Cir NW,Massillon,OH,44646,169900,2,2.0,Scotsbury Green Condos,1384,,2004,7,123,251,Active,July-28-2019 02:00 PM,July-28-2019 04:00 PM,http://www.redfin.com/OH/Massillon/8677-Dublin-Ridge-Cir-NW-44646/unit-4-C/home/100787170,Yes MLS,4115858,N,Y,40.851656,-81.512019
MLS Listing,,Single Family Residential,5964 Kinloch Court Cir NW,Massillon,OH,44646,449900,5,4.5,Carrington,4460,23086,2003,7,101,15,Active,,,http://www.redfin.com/OH/Massillon/5964-Kinloch-Court-Cir-NW-44646/home/167696817,Yes MLS,4116281,N,Y,40.8680708,-81.5029758
MLS Listing,,Single Family Residential,7367 Roman Ave NW,Massillon,OH,44646,575000,3,2.5,Berkshire Farms #1,2876,21344,2019,7,200,21,Active,July-28-2019 01:00 PM,July-28-2019 03:00 PM,http://www.redfin.com/OH/Jackson-Township/7367-Roman-Ave-44646/home/167692092,Yes MLS,4117107,N,Y,40.8865006,-81.5152534
MLS Listing,,Single Family Residential,3276 Persia Cir SW,Massillon,OH,44646,47300,2,1.0,Crescent Gardens,832,9147,1941,7,57,,Active,,,http://www.redfin.com/OH/Massillon/3276-Persia-Cir-SW-44646/home/66255473,Yes MLS,4116929,N,Y,40.7948411,-81.474316
MLS Listing,,Single Family Residential,920 Federal Ave NE,Massillon,OH,44646,64900,3,1.5,Massillon,,2613,1929,8,,,Active,,,http://www.redfin.com/OH/Massillon/920-Federal-Ave-NE-44646/home/66235270,Yes MLS,4116776,N,Y,40.8005306,-81.5126022
MLS Listing,,Single Family Residential,8946 Blossom Cir NW,Massillon,OH,44646,248900,4,2.5,Massillon,2908,22651,1967,8,86,,Active,,,http://www.redfin.com/OH/Massillon/8946-Blossom-Cir-NW-44646/home/66524035,Yes MLS,4116289,N,Y,40.8393462,-81.5183044
MLS Listing,,Single Family Residential,1121 3rd St NE,Massillon,OH,44646,107900,3,1.0,Massillon,1504,6098,1945,8,72,,Active,,,http://www.redfin.com/OH/Massillon/1121-3rd-St-NE-44646/home/75798709,Yes MLS,4116548,N,Y,40.811131,-81.521091
MLS Listing,,Townhouse,3003 Hilton St NW,Massillon,OH,44646,114000,4,2.0,Kolp Massillon Road Grove,1440,14374,1977,8,79,,Active,,,http://www.redfin.com/OH/Massillon/3003-Hilton-St-NW-44646/home/66586935,Yes MLS,4116484,N,Y,40.7995755,-81.4789809
MLS Listing,,Condo/Co-op,8374 Forest Ridge St NW,Massillon,OH,44646,259900,3,2.0,Mudbrook,1942,,2008,8,134,112,Active,,,http://www.redfin.com/OH/Massillon/8374-Forest-Ridge-St-NW-44646/unit-61/home/79905278,Yes MLS,4116276,N,Y,40.8743035,-81.5060849
MLS Listing,,Single Family Residential,1779 Cadbury St NW,Massillon,OH,44646,229900,4,2.5,Plymouth Knolls,2136,13068,1992,10,108,,Active,,,http://www.redfin.com/OH/Massillon/1779-Cadbury-Ave-NW-44646/home/75809914,Yes MLS,4115899,N,Y,40.8174908,-81.4738334
MLS Listing,,Single Family Residential,1512 Janice St NE,Massillon,OH,44646,114900,3,1.0,Massillon,,,1959,10,,,Active,,,http://www.redfin.com/OH/Massillon/1512-Janice-St-NE-44646/home/66252662,Yes MLS,4115738,N,Y,40.8149234,-81.5235345
MLS Listing,,Condo/Co-op,1736 Oak Trail St NE,Massillon,OH,44646,89900,3,1.5,Ledgewood Condo,1240,,1975,10,73,165,Active,,,http://www.redfin.com/OH/Massillon/1736-Oak-Trail-St-NE-44646/unit-1H/home/75730852,Yes MLS,4115632,N,Y,40.8183291,-81.498806
MLS Listing,,Single Family Residential,7253 Jimmie St SW,Massillon,OH,44646,234000,3,3.5,Knight Xing #1,2100,14810,2015,11,111,,Active,,,http://www.redfin.com/OH/Massillon/7253-Jimmie-St-SW-44646/home/100788915,Yes MLS,4115461,N,Y,40.7444714,-81.4909044
MLS Listing,,Single Family Residential,9617 Mont Clair Blvd NW,Massillon,OH,44646,489000,3,2.5,Mont Clair Province/Lords Lake,2806,26136,2010,11,174,83,Active,,,http://www.redfin.com/OH/Massillon/9617-Mont-Clair-Blvd-NW-44646/home/100787192,Yes MLS,4115449,N,Y,40.8761915,-81.5296661
MLS Listing,,Single Family Residential,6430 Great Court Cir NW,Massillon,OH,44646,436900,3,3.5,Carrington,4200,26136,2003,11,104,20,Active,,,http://www.redfin.com/OH/Massillon/6430-Great-Court-Cir-NW-44646/home/66737911,Yes MLS,4114401,N,Y,40.8721117,-81.5066853
MLS Listing,,Single Family Residential,7208 Montella Ave NW,Jackson Township,OH,44614,289990,3,2.0,Emerald Estates,1866,11325,2019,12,155,35,Active,,,http://www.redfin.com/OH/Jackson-Township/7208-Montella-AVE-NW-44614/home/163615831,Yes MLS,4115070,N,Y,40.888587,-81.5287
MLS Listing,,Single Family Residential,523 Tanya Ave NW,Massillon,OH,44646,79900,3,1.0,Rolling Acres,1309,11761,1983,14,61,,Active,,,http://www.redfin.com/OH/Massillon/523-Tanya-Ave-NW-44646/home/66515878,Yes MLS,4114929,N,Y,40.8006295,-81.4815343
MLS Listing,,Vacant Land,7407 Roman Ave NW,Massillon,OH,44646,95900,,,Massillon,,29620,,14,,21,Active,,,http://www.redfin.com/OH/Massillon/7407-Ohio-Ave-NW-44646/home/163109828,Yes MLS,4114890,N,Y,40.886808,-81.517944
MLS Listing,,Single Family Residential,7168 Crusader St SW,Massillon,OH,44646,229900,3,2.0,Knights Xing Allotment #4,1952,12196,2017,14,118,23,Active,,,http://www.redfin.com/OH/Massillon/7168-Crusader-St-SW-44646/home/113611466,Yes MLS,4114793,N,Y,40.7428786,-81.4895817
MLS Listing,,Single Family Residential,7374 Montella Ave NW,Canal Fulton,OH,44614,525000,4,4.0,Emerald Estates #10,5044,22651,2016,14,104,25,Active,,,http://www.redfin.com/OH/Canal-Fulton/7374-Montella-Ave-NW-44614/home/110074519,Yes MLS,4114040,N,Y,40.8880875,-81.5254373
MLS Listing,,Single Family Residential,1027 3rd St SE,Massillon,OH,44646,22900,4,1.0,City/Massillon,1112,4791,1941,15,21,,Active,,,http://www.redfin.com/OH/Massillon/1027-3rd-St-SE-44646/home/75799329,Yes MLS,4113894,N,Y,40.7855605,-81.5135883
MLS Listing,,Single Family Residential,8625 Milmont St NW,Massillon,OH,44646,169500,4,2.0,Amherst Heights,1440,11325,1962,16,118,,Active,,,http://www.redfin.com/OH/Massillon/8625-Milmont-St-NW-44646/home/75732210,Yes MLS,4113884,N,Y,40.8310581,-81.512594
MLS Listing,,Single Family Residential,1845 John Carroll Dr SE,Massillon,OH,44646,189900,3,2.0,University Village,1764,10454,2000,18,108,13,Active,,,http://www.redfin.com/OH/Massillon/1845-John-Carroll-Dr-SE-44646/home/75744215,Yes MLS,4113031,N,Y,40.7752806,-81.4916978
MLS Listing,,Single Family Residential,8575 Nobleman Cir NW,Massillon,OH,44646,309900,4,2.5,Coventry Hills,,36154,1998,18,,5,Active,,,http://www.redfin.com/OH/Massillon/8575-Nobleman-Cir-NW-44646/home/66361216,Yes MLS,4112578,N,Y,40.8562001,-81.5100726
MLS Listing,,Single Family Residential,838 Commonwealth Ave NE,Massillon,OH,44646,64900,3,1.0,Massillon,1200,2613,1926,21,54,,Active,,,http://www.redfin.com/OH/Massillon/838-Commonwealth-Ave-NE-44646/home/100797269,Yes MLS,4112579,N,Y,40.8073488,-81.5145316
MLS Listing,,Vacant Land,Cyprus Dr SE,Massillon,OH,44646,46000,,,St Andrews Golf Estates 01,,21780,,21,,5,Active,,,http://www.redfin.com/OH/Massillon/Cyprus-Dr-SE-44646/home/66599957,Yes MLS,4112477,N,Y,40.772686,-81.493706
MLS Listing,,Single Family Residential,3051 Sheila St NW,Massillon,OH,44646,174900,3,3.0,Hathaway Hills,2226,13503,1971,21,79,,Active,,,http://www.redfin.com/OH/Massillon/3051-Sheila-St-NW-44646/home/75766537,Yes MLS,4112443,N,Y,40.8046306,-81.4772413
MLS Listing,,Single Family Residential,7795 Bricker Rd NW,Massillon,OH,44646,289900,5,3.5,Wood Moor,4160,18730,1972,23,70,,Active,,,http://www.redfin.com/OH/Massillon/7795-Bricker-Rd-NW-44646/home/66262211,Yes MLS,4111871,N,Y,40.894211,-81.5250349
MLS Listing,,Townhouse,523 Wellman Ave SE,Massillon,OH,44646,79900,3,3.0,Massillon,2812,6969,1890,23,28,,Active,,,http://www.redfin.com/OH/Massillon/523-Wellman-Ave-SE-44646/home/100796403,Yes MLS,4112255,N,Y,40.7965309,-81.5153462
MLS Listing,,Single Family Residential,344 Shaw Ave NE,Massillon,OH,44646,149900,3,2.0,Shaw View Estates Rep 01,1736,10018,2002,23,86,,Active,,,http://www.redfin.com/OH/Massillon/344-Shaw-Ave-NE-44646/home/66491895,Yes MLS,4112163,N,Y,40.8204323,-81.5199763
MLS Listing,,Single Family Residential,1122 Burd Ave NE,Massillon,OH,44646,209900,3,2.5,Massillon,2248,11761,2001,23,93,,Active,,,http://www.redfin.com/OH/Massillon/1122-Burd-Ave-NE-44646/home/66524648,Yes MLS,4112039,N,Y,40.8213959,-81.5101583
MLS Listing,,Single Family Residential,9086 Gladys St NW,Massillon,OH,44646,295000,3,2.0,Pines Hollow,1918,20473,1999,23,154,,Active,July-28-2019 01:00 PM,July-28-2019 03:00 PM,http://www.redfin.com/OH/Massillon/9086-Gladys-St-NW-44646/home/66749948,Yes MLS,4112058,N,Y,40.8444066,-81.520405
MLS Listing,,Single Family Residential,7244 Jimmie St SW,Massillon,OH,44646,299900,4,3.0,Knights Xing #1,3276,24393,2014,23,92,27,Active,,,http://www.redfin.com/OH/Massillon/7244-Jimmie-St-SW-44646/home/66296465,Yes MLS,4110344,N,Y,40.7439636,-81.4909473
MLS Listing,,Single Family Residential,2836 Gray Ridge Ave SE,Massillon,OH,44646,224000,4,2.5,Gray Rdg Estates 01,2264,10454,2014,23,99,,Active,July-28-2019 02:00 PM,July-28-2019 04:00 PM,http://www.redfin.com/OH/Massillon/2836-Gray-Ridge-Ave-SE-44646/home/100789188,Yes MLS,4110712,N,Y,40.7894611,-81.4833384
MLS Listing,,Vacant Land,"#2 Portage St NW",Massillon,OH,44646,279000,,,The Manors at Portage,,295772,,23,,292,Active,,,http://www.redfin.com/OH/Massillon/2-Portage-St-NW-Unknown/home/145858130,Yes MLS,4111661,N,Y,40.882491,-81.513362
MLS Listing,,Single Family Residential,631 Wellman Ave SE,Massillon,OH,44646,56000,2,1.0,Massillon,1136,4356,1891,23,49,,Active,,,http://www.redfin.com/OH/Massillon/631-Wellman-Ave-SE-44646/home/66344246,Yes MLS,4111060,N,Y,40.7969669,-81.5138027
MLS Listing,,Single Family Residential,936 11th St NE,Massillon,OH,44646,128500,3,2.0,City/Massillon,1874,9147,1920,23,69,,Active,,,http://www.redfin.com/OH/Massillon/936-11th-St-NE-44646/home/75752263,Yes MLS,4111415,N,Y,40.8078227,-81.5108443
MLS Listing,,Single Family Residential,2450 Tanglewood,Massillon,OH,44646,150000,3,1.5,Massillon,1656,,1974,23,91,,Active,,,http://www.redfin.com/OH/Massillon/2450-Tanglewood-Dr-NE-44646/home/75800289,Yes MLS,4111910,N,Y,40.8032696,-81.4880309
MLS Listing,,Single Family Residential,2411 Amherst Ave NW,Massillon,OH,44646,145900,3,1.0,Blaumeiser Tr,1080,11325,1957,23,135,,Active,,,http://www.redfin.com/OH/Massillon/2411-Amherst-Ave-NW-44646/home/75766595,Yes MLS,4111618,N,Y,40.8267378,-81.5128595
MLS Listing,,Single Family Residential,8797 Jane St NW,Massillon,OH,44646,135000,3,2.0,Massillon,1872,32670,1957,27,72,,Active,July-28-2019 01:00 PM,July-28-2019 03:00 PM,http://www.redfin.com/OH/Massillon/8797-Jane-St-NW-44646/home/79938131,Yes MLS,4110624,N,Y,40.836494,-81.5158178
MLS Listing,,Condo/Co-op,8744 Lake Bluff St NW,Massillon,OH,44646,360225,3,2.0,Waterside Condominium,2102,,2019,28,171,275,Active,,,http://www.redfin.com/OH/Massillon/8744-Lake-Bluff-St-NW-44646/home/167148212,Yes MLS,4110430,N,Y,40.8579389,-81.5137966
MLS Listing,,Single Family Residential,3194 Rowmont Rd SW,Massillon,OH,44646,77500,4,1.0,Crescent Gardens,1180,6969,1952,29,66,,Active,,,http://www.redfin.com/OH/Massillon/3194-Rowmont-Ave-SW-44646/home/75761587,Yes MLS,4110313,N,Y,40.7923445,-81.4752061
MLS Listing,,Single Family Residential,8190 Brooke Hollow St NW,Massillon,OH,44646,309900,4,3.5,Audubon Ridge,3500,20473,1993,29,89,,Active,,,http://www.redfin.com/OH/Massillon/8190-Brooke-Hollow-St-NW-44646/home/66349738,Yes MLS,4110328,N,Y,40.8448781,-81.5030084
MLS Listing,,Townhouse,7621 Bermuda St NW,Massillon,OH,44646,129900,4,2.0,Sahara Sands Allotment,1647,11325,1967,29,79,,Active,,,http://www.redfin.com/OH/Massillon/7621-Bermuda-St-NW-44646/home/100800076,Yes MLS,4106928,N,Y,40.8294776,-81.4935308
MLS Listing,,Single Family Residential,4075 Prosway Ave SW,Massillon,OH,44646,159900,4,1.5,Prospect Knolls,1766,12196,1964,29,91,,Active,,,http://www.redfin.com/OH/Massillon/4075-Prosway-Ave-SW-44646/home/79863574,Yes MLS,4107828,N,Y,40.7489109,-81.4791953
MLS Listing,,Single Family Residential,2067 Championship Cir SE,Massillon,OH,44646,329900,5,3.0,Augusta Lakes,3472,13068,2005,29,95,,Active,,,http://www.redfin.com/OH/Massillon/2067-Championship-Cir-SE-44646/home/79891852,Yes MLS,4106994,N,Y,40.7777691,-81.4963938
MLS Listing,,Single Family Residential,3487 Piperglen Ave NW,Massillon,OH,44646,245000,4,2.5,Bradford Farms,2256,31363,1996,30,109,,Active,,,http://www.redfin.com/OH/Massillon/3487-Piperglen-Ave-NW-44646/home/66096404,Yes MLS,4109868,N,Y,40.8320992,-81.4919337
MLS Listing,,Single Family Residential,1212 13th St SE,Massillon,OH,44646,31900,3,2.0,Massillon,1144,7405,1920,30,28,,Active,,,http://www.redfin.com/OH/Massillon/1212-13th-St-SE-44646/home/66099949,Yes MLS,4109823,N,Y,40.7842036,-81.5090435
MLS Listing,,Single Family Residential,437 17th St NE,Massillon,OH,44646,67900,3,2.0,Massillon,1812,9147,1924,30,37,,Active,,,http://www.redfin.com/OH/Massillon/437-17th-St-NE-44646/home/75730562,Yes MLS,4109813,N,Y,40.8026014,-81.5032871
MLS Listing,,Single Family Residential,345 27th St SE,Massillon,OH,44646,74900,2,1.0,Massillon,,10018,1947,31,,,Active,,,http://www.redfin.com/OH/Massillon/345-27th-St-SE-44646/home/75730155,Yes MLS,4107698,N,Y,40.792449,-81.4850626
MLS Listing,,Single Family Residential,827 Franklin Rd NE,Massillon,OH,44646,79000,3,2.0,Massillon,1287,6969,1953,32,61,,Active,,,http://www.redfin.com/OH/Massillon/827-Franklin-Rd-NE-44646/home/75752372,Yes MLS,4109207,N,Y,40.8046545,-81.5003819
MLS Listing,,Single Family Residential,4307 Chevron Cir SW,Massillon,OH,44646,314900,4,3.5,Knights Xing Allotment #2,3173,9583,2015,32,99,27,Active,July-28-2019 01:00 PM,July-28-2019 02:30 PM,http://www.redfin.com/OH/Massillon/4307-Chevron-Cir-SW-44646/home/75818757,Yes MLS,4108729,N,Y,40.7456365,-81.4885885
MLS Listing,,Townhouse,7350 Raleigh St NW,Massillon,OH,44646,235000,6,4.5,Massillon,3430,13939,1976,35,69,,Active,,,http://www.redfin.com/OH/Massillon/7350-Raleigh-St-NW-44646/home/75778905,Yes MLS,4108515,N,Y,40.82161,-81.4886314
MLS Listing,,Townhouse,2776 Kipling Ave NW,Massillon,OH,44646,235000,6,4.5,Massillon,3360,14810,1977,35,70,,Active,,,http://www.redfin.com/OH/Massillon/2776-Kipling-Ave-NW-44646/home/75778883,Yes MLS,4108518,N,Y,40.8217053,-81.489845
MLS Listing,,Townhouse,7374 Raleigh NW,Massillon,OH,44646,235000,6,4.5,Massillon,3430,13939,1976,35,69,,Active,,,http://www.redfin.com/OH/Massillon/7374-Raleigh-St-NW-44646/home/113146107,Yes MLS,4108514,N,Y,40.8219206,-81.4890188
MLS Listing,,Condo/Co-op,7819 Hills And Dales Rd NW Unit A,Massillon,OH,44646,104900,2,2.5,Hillsdale Ridge Condo,1304,,1978,35,80,165,Active,,,http://www.redfin.com/OH/Massillon/7819-Hills-and-Dales-Rd-NW-44646/unit-A/home/66087877,Yes MLS,4107450,N,Y,40.824377,-81.493922
MLS Listing,,Single Family Residential,9233 Paulding St NW,Massillon,OH,44646,254900,4,2.5,Wood Moor Allotment 05,3300,21344,1979,35,77,,Active,July-28-2019 02:30 PM,July-28-2019 04:00 PM,http://www.redfin.com/OH/Massillon/9233-Paulding-St-NW-44646/home/75756201,Yes MLS,4106837,N,Y,40.8991156,-81.5208338
MLS Listing,,Single Family Residential,1221 Stuart St NW,Massillon,OH,44646,142900,4,2.0,Kendal Heights,2366,7405,1926,35,60,,Active,,,http://www.redfin.com/OH/Massillon/1221-Stuart-St-NW-44646/home/75793649,Yes MLS,4108400,N,Y,40.8249192,-81.5077563
MLS Listing,,Single Family Residential,880 Starr Ridge St SE,Massillon,OH,44646,175000,3,2.0,Gray Rdg Estates 01,1444,9147,2013,36,121,2,Active,,,http://www.redfin.com/OH/Massillon/880-Starr-Ridge-St-SE-44646/home/66099359,Yes MLS,4106755,N,Y,40.7868764,-81.4840249
MLS Listing,,Townhouse,7656 Bermuda St NW,Massillon,OH,44646,129900,4,2.0,Sahara Sands Allotment 03,1647,11325,1967,36,79,,Active,,,http://www.redfin.com/OH/Massillon/7656-Bermuda-St-NW-44646/home/80102470,Yes MLS,4106968,N,Y,40.8289705,-81.4942067
MLS Listing,,Townhouse,7583 Bermuda St NW,Massillon,OH,44646,129900,4,2.0,Sahara Sands Allotment,1647,11325,1968,36,79,,Active,,,http://www.redfin.com/OH/Massillon/7583-Bermuda-St-NW-44646/home/100800082,Yes MLS,4107007,N,Y,40.8294216,-81.4928772
MLS Listing,,Condo/Co-op,7252 Hills And Dales Rd NW,Massillon,OH,44646,138900,2,2.0,Woodlake Condo,1750,,1983,38,79,240,Active,,,http://www.redfin.com/OH/Massillon/7252-Hills-and-Dales-Rd-NW-44646/unit-7/home/66249727,Yes MLS,4107173,N,Y,40.829206,-81.485805
MLS Listing,,Condo/Co-op,5271 Lake Vista Cir NW,Massillon,OH,44646,417875,4,3.0,Massillon,3070,,2015,39,136,275,Active,,,http://www.redfin.com/OH/Jackson-Township/Lake-Vista-Ave-NW-44646/home/100790475,Yes MLS,4106737,N,Y,40.857733,-81.511483
MLS Listing,,Single Family Residential,2320 Wilmington Ave SE,Massillon,OH,44646,184900,4,2.5,Massillon,2126,10454,1999,42,87,21,Active,,,http://www.redfin.com/OH/Massillon/2320-Wilmington-Ave-SE-44646/home/79880496,Yes MLS,4106290,N,Y,40.7712178,-81.4922768
MLS Listing,,Single Family Residential,3401 Stahl Ave NW,Massillon,OH,44646,139900,3,1.0,Highland View Farms,1456,10018,1932,42,96,,Active,,,http://www.redfin.com/OH/Massillon/3401-Stahl-Ave-NW-44646/home/66359526,Yes MLS,4106252,N,Y,40.8308211,-81.5053563
MLS Listing,,Single Family Residential,122 2nd St NE,Massillon,OH,44646,66500,3,1.5,City/Massillon,1200,3484,1857,42,55,,Active,,,http://www.redfin.com/OH/Massillon/122-2nd-St-NE-44646/home/79898209,Yes MLS,4106040,N,Y,40.7986999,-81.5207909
MLS Listing,,Single Family Residential,9550 Pondera St NW,Massillon,OH,44646,234900,3,3.5,West Moor Allotment 03,5264,17424,1984,42,45,,Active,,,http://www.redfin.com/OH/Massillon/9550-Pondera-St-NW-44646/home/66277954,Yes MLS,4104924,N,Y,40.8927949,-81.5272318
MLS Listing,,Townhouse,428 2nd St NE,Massillon,OH,44646,61500,4,3.0,City/Massillon,1816,3049,1877,42,34,,Active,,,http://www.redfin.com/OH/Massillon/428-2nd-St-NE-44646/home/100796178,Yes MLS,4106007,N,Y,40.8010237,-81.5219484
MLS Listing,,Single Family Residential,214 21st St SE,Massillon,OH,44646,47900,3,1.0,York Village 01,982,6534,1962,43,49,,Active,,,http://www.redfin.com/OH/Massillon/214-21st-St-SE-44646/home/79875852,Yes MLS,4105858,N,Y,40.7961961,-81.4943353
MLS Listing,,Single Family Residential,3175 Inwood Dr NW,Massillon,OH,44646,325000,4,3.5,Hillsdale,3026,15245,1970,43,107,4,Active,,,http://www.redfin.com/OH/Massillon/3175-Inwood-Dr-NW-44646/home/75778888,Yes MLS,4102874,N,Y,40.8262899,-81.497344
MLS Listing,,Single Family Residential,1201 Valerie Ave NW,Massillon,OH,44646,1295000,6,8.0,Massillon,8041,266587,2005,44,161,,Active,,,http://www.redfin.com/OH/Massillon/1201-Valerie-Ave-NE-44646/home/100788047,Yes MLS,4105512,N,Y,40.8105117,-81.498571
MLS Listing,,Single Family Residential,1504 1st St NE,Massillon,OH,44646,49900,2,1.5,Massillon,974,4356,1937,48,51,,Active,,,http://www.redfin.com/OH/Massillon/1504-1st-St-NE-44646/home/80064828,Yes MLS,4104316,N,Y,40.8147825,-81.5258293
MLS Listing,,Single Family Residential,953 9th St NE,Massillon,OH,44646,84900,3,2.0,Massillon,1309,5662,1952,48,65,,Active,,,http://www.redfin.com/OH/Massillon/953-9th-St-NE-44646/home/79890166,Yes MLS,4095537,N,Y,40.8084058,-81.5144887
MLS Listing,,Single Family Residential,206 Austin Ave NW,Massillon,OH,44646,119900,3,1.0,Albert Snively,1152,6534,1954,52,104,,Active,,,http://www.redfin.com/OH/Massillon/206-Austin-Ave-NW-44646/home/75784157,Yes MLS,4102890,N,Y,40.7966276,-81.4758398
MLS Listing,,Single Family Residential,8950 Traphagen St NW,Massillon,OH,44646,206000,3,1.5,Massillon,2943,36154,1956,53,70,,Active,,,http://www.redfin.com/OH/Massillon/8950-Traphagen-St-NW-44646/home/75733231,Yes MLS,4102307,N,Y,40.8377073,-81.518433
MLS Listing,,Single Family Residential,745 Erie St N,Massillon,OH,44646,54900,3,1.0,Massillon,1260,3484,1920,54,44,,Active,,,http://www.redfin.com/OH/Massillon/745-Erie-St-N-44646/home/66216248,Yes MLS,4101547,N,Y,40.8042833,-81.5256779
MLS Listing,,Single Family Residential,7277 Gauntlet St SW,Massillon,OH,44646,244900,4,3.0,Knights Xing #1,2852,13939,2013,57,86,27,Active,,,http://www.redfin.com/OH/Massillon/7277-Gauntlet-Cir-SW-44646/home/100788923,Yes MLS,4097352,N,Y,40.7461274,-81.4915049
MLS Listing,,Townhouse,225 3rd St NE,Massillon,OH,44646,45000,3,2.0,City/Massillon,1524,2613,1897,58,30,,Active,,,http://www.redfin.com/OH/Massillon/225-3rd-St-NE-44646/home/75775696,Yes MLS,4100414,N,Y,40.7996234,-81.5205337
MLS Listing,,Single Family Residential,7870 Oakdale St NW,Massillon,OH,44646,119900,2,2.0,Oakdale Allotment,1112,39204,1941,62,108,,Active,,,http://www.redfin.com/OH/Massillon/7870-Oakdale-St-NW-44646/home/75732332,Yes MLS,4099861,N,Y,40.8363611,-81.4975517
MLS Listing,,Single Family Residential,735 3rd St NE,Massillon,OH,44646,30000,2,1.0,Massillon,1032,7840,1897,72,29,,Active,,,http://www.redfin.com/OH/Massillon/735-3rd-St-NE-44646/home/75776144,Yes MLS,4096437,N,Y,40.8038463,-81.5213482
MLS Listing,,Vacant Land,"#7 Portage St NW",Massillon,OH,44646,239000,,,The Manors at Portage,,232174,,78,,292,Active,,,http://www.redfin.com/OH/Massillon/7-Portage-St-NW-44646/home/165805963,Yes MLS,4094772,N,Y,40.880778,-81.51067
MLS Listing,,Single Family Residential,9023 Clubview St NW,Massillon,OH,44646,549000,4,3.0,Rolling Green West #1,3320,22215,2019,79,165,42,Active,July-28-2019 02:00 PM,July-28-2019 04:00 PM,http://www.redfin.com/OH/Jackson-Township/Gladys-St-NW-44646/home/160587390,Yes MLS,4094403,N,Y,40.888549,-81.517629
MLS Listing,,Single Family Residential,4642 Red Fox Dr NW,Massillon,OH,44646,398900,4,2.5,Highlands At Audubon,3441,42253,1995,80,116,,Active,,,http://www.redfin.com/OH/Massillon/4642-Red-Fox-Dr-NW-44646/home/75756328,Yes MLS,4093952,N,Y,40.8485011,-81.5041125
MLS Listing,,Townhouse,7690 Peyton St NW,Massillon,OH,44646,106000,4,2.0,Sahara Sands Allotment 03,1647,16117,1968,80,64,,Active,,,http://www.redfin.com/OH/Massillon/7690-Peyton-St-NW-44646/home/100800126,Yes MLS,4093859,N,Y,40.8282001,-81.4949357
MLS Listing,,Townhouse,7655 Peyton St NW,Massillon,OH,44646,129900,4,2.0,Sahara Sands Allotment 03,1647,11325,1967,84,79,,Active,,,http://www.redfin.com/OH/Massillon/7655-Peyton-St-NW-44646/home/100800157,Yes MLS,4092920,N,Y,40.8286565,-81.4942067
MLS Listing,,Single Family Residential,242 State Ave NE,Massillon,OH,44646,74900,3,1.0,Massillon,1203,6098,1928,84,62,,Active,,,http://www.redfin.com/OH/Massillon/242-State-Ave-NE-44646/home/66348253,Yes MLS,4092907,N,Y,40.804703,-81.5214699
MLS Listing,,Vacant Land,V/L Southway St SW,Massillon,OH,44646,25000,,,Westwood,,24829,,86,,,Active,,,http://www.redfin.com/OH/Massillon/V-L-Southway-St-SW-44646/home/164549955,Yes MLS,4091831,N,Y,40.782565,-81.460819
MLS Listing,,Single Family Residential,9085 Emerald Isle St NW,Canal Fulton,OH,44614,540000,4,4.5,Emerald Estates Ph I,4971,41382,2011,96,109,25,Active,,,http://www.redfin.com/OH/Canal-Fulton/9085-Emerald-Isle-St-NW-44614/home/100809458,Yes MLS,4086083,N,Y,40.8901633,-81.5187974
MLS Listing,,Vacant Land,9458 Emerald Isle St NW,Canal Fulton,OH,44614,129000,,,Emerald Estates #13,,45302,,98,,25,Active,,,http://www.redfin.com/OH/Canal-Fulton/9458-Emerald-Isle-St-NW-44614/home/113156735,Yes MLS,4088634,N,Y,40.8896613,-81.5260713
MLS Listing,,Townhouse,2711 Erie Ave SW,Massillon,OH,44662,139900,5,3.0,Massillon,2486,20037,1906,100,56,,Active,,,http://www.redfin.com/OH/Navarre/2711-Erie-Ave-SW-44662/home/66612482,Yes MLS,4087716,N,Y,40.76961,-81.51604
MLS Listing,,Vacant Land,2713 Ashwell Ave SW,Massillon,OH,44646,49900,,,Bishop Mdws 01,,21780,,106,,8,Active,,,http://www.redfin.com/OH/Massillon/2713-Ashwell-Ave-SW-44646/home/100788296,Yes MLS,4085776,N,Y,40.7683642,-81.4713284
MLS Listing,,Single Family Residential,1865 Bloominghills Pl SE,Massillon,OH,44646,169900,3,2.0,Massillon,1277,7405,2019,107,133,,Active,,,http://www.redfin.com/OH/Massillon/1865-Blooming-Hills-Pl-SE-44646/home/75793944,Yes MLS,4085480,N,Y,40.7755807,-81.5090662
MLS Listing,,Single Family Residential,1219 Burd Ave NE,Massillon,OH,44646,267500,4,3.0,Massillon,3828,37026,1963,109,70,,Active,,,http://www.redfin.com/OH/Massillon/1219-Burd-Ave-NE-44646/home/66295051,Yes MLS,4084819,N,Y,40.8206675,-81.5081568
MLS Listing,,Single Family Residential,7653 Lutz Ave NW,Massillon,OH,44646,399900,4,4.5,Massillon,4635,30056,1994,109,86,,Active,,,http://www.redfin.com/OH/Massillon/7653-Lutz-Ave-NW-44646/home/75732052,Yes MLS,4084578,N,Y,40.8918154,-81.5186045
MLS Listing,,Single Family Residential,7890 Greenwich Blvd NW,Massillon,OH,44646,624000,4,3.5,Greenwich Place,5018,42253,2013,112,124,46,Active,,,http://www.redfin.com/OH/Massillon/7890-Greenwich-Blvd-44646/home/100790285,Yes MLS,4084215,N,Y,40.8699034,-81.4983021
MLS Listing,,Vacant Land,Lot10 Orchard Hill Cir NE,Massillon,OH,44646,29900,,,Orchard Hill,,12196,,112,,,Active,,,http://www.redfin.com/OH/Massillon/Lot-10-Orchard-Hill-Cir-NE-44646/home/144899812,Yes MLS,4084179,N,Y,40.808204,-81.49738
MLS Listing,,Vacant Land,lot9 Orchard Hill Cir,Massillon,OH,44646,35500,,,Orchard Hill,,16552,,112,,,Active,,,http://www.redfin.com/OH/Massillon/9-Orchard-Hill-Cir-NE-44646/home/90362459,Yes MLS,4084164,N,Y,40.8087086,-81.4975133
MLS Listing,,Vacant Land,9493 Emerald Isle St NW,Canal Fulton,OH,44614,159000,,,The Reserve at Emerald Estates,,96703,,112,,25,Active,,,http://www.redfin.com/OH/Canal-Fulton/9493-Emerald-Isle-St-NW-44614/home/113156312,Yes MLS,4083709,N,Y,40.8909268,-81.5264797
MLS Listing,,Single Family Residential,8242 Keswick Court Cir NW,Massillon,OH,44646,439000,5,4.0,Carrington,4680,16552,1998,112,94,15,Active,,,http://www.redfin.com/OH/Massillon/8242-Keswick-Ct-Cir-NW-44646/home/75803640,Yes MLS,4083666,N,Y,40.8704873,-81.5038124
MLS Listing,,Single Family Residential,1841 Wales Rd NE,Massillon,OH,44646,369900,3,2.0,Massillon,1992,17424,2018,114,186,,Active,,,http://www.redfin.com/OH/Massillon/1841-Wales-Rd-NE-44646/home/164331146,Yes MLS,4082240,N,Y,40.8186745,-81.5058867
MLS Listing,,Vacant Land,9474 Emerald Isle St NW,Canal Fulton,OH,44614,149000,,,The Woods at Emerald Reserve,,76665,,116,,25,Active,,,http://www.redfin.com/OH/Canal-Fulton/9474-Emerald-Isle-St-NW-44614/home/113108314,Yes MLS,4082597,N,Y,40.8897438,-81.5270359
MLS Listing,,Single Family Residential,9467 Emerald Isle St NW,Canal Fulton,OH,44614,698794,4,3.5,The Woods at Emerald Estates,4456,44866,2019,116,157,25,Active,,,http://www.redfin.com/OH/Canal-Fulton/9467-Emerald-Isle-St-NW-44614/home/113156813,Yes MLS,4082588,N,Y,40.8904971,-81.5258226
MLS Listing,,Single Family Residential,759 11th St SE,Massillon,OH,44646,79500,2,1.5,City/Massillon,,3920,1898,127,,,Active,,,http://www.redfin.com/OH/Massillon/759-11th-St-SE-44646/home/75798614,Yes MLS,4079350,N,Y,40.7881867,-81.5119162
MLS Listing,,Vacant Land,Barrington Cir SE,Massillon,OH,44646,25000,,,Gray Rdg Estates 01,,20037,,128,,2,Active,,,http://www.redfin.com/OH/Massillon/Barrington-Cir-SE-44646/home/66718999,Yes MLS,4079079,N,Y,40.788568,-81.483698
MLS Listing,,Vacant Land,Sickels Cir SE,Massillon,OH,44646,25000,,,Gray Rdg Estates 01,,14810,,128,,2,Active,,,http://www.redfin.com/OH/Massillon/Sickels-Cir-SE-44646/home/100789196,Yes MLS,4079071,N,Y,40.788122,-81.483358
MLS Listing,,Vacant Land,Starr Ridge St SE,Massillon,OH,44646,25000,,,Gray Rdg Estates 01,,7840,,128,,2,Active,,,http://www.redfin.com/OH/Massillon/Starr-Ridge-St-SE-44646/home/100789201,Yes MLS,4079066,N,Y,40.786567,-81.48443
MLS Listing,,Vacant Land,27th St SE,Massillon,OH,44646,195000,,,Massillon,,668210,,128,,,Active,,,http://www.redfin.com/OH/Massillon/27th-St-SE-44646/home/66714249,Yes MLS,4079058,N,Y,40.793321,-81.484141
MLS Listing,,Single Family Residential,416 State Ave NE,Massillon,OH,44646,94900,3,2.0,Massillon,1522,6969,1898,128,62,,Active,,,http://www.redfin.com/OH/Massillon/416-State-Ave-NE-44646/home/66369112,Yes MLS,4079088,N,Y,40.8046411,-81.5199015
MLS Listing,,Single Family Residential,1330 Arapahoe Rd SE,Massillon,OH,44646,49900,3,1.0,Massillon,900,6534,1944,128,55,,Active,,,http://www.redfin.com/OH/Massillon/1330-Arapahoe-Rd-SE-44646/home/100797491,Yes MLS,4079043,N,Y,40.7806556,-81.5035551
MLS Listing,,Vacant Land,135 Westland Ave NW,Massillon,OH,44646,28000,,,Westland Park,,6098,,134,,,Active,,,http://www.redfin.com/OH/Massillon/135-Westland-Ave-NW-44646/home/66277450,Yes MLS,4077561,N,Y,40.794236,-81.457072
MLS Listing,,Single Family Residential,6649 Wales Ave NW,Massillon,OH,44646,399900,3,1.5,Massillon,1720,124146,1982,136,233,,Active,,,http://www.redfin.com/OH/Massillon/6649-Wales-Ave-NW-44646/home/100789333,Yes MLS,4076632,N,Y,40.8773801,-81.480806
MLS Listing,,Single Family Residential,5591 Nettlecreek Ave NW,Massillon,OH,44646,514000,6,4.5,Buckingham Place,5113,20473,2001,140,101,,Active,,,http://www.redfin.com/OH/Massillon/5591-Nettlecreek-Ave-NW-44646/home/66751319,Yes MLS,4073667,N,Y,40.8622249,-81.5061279
MLS Listing,,Single Family Residential,8324 Audubon St NW,Massillon,OH,44646,289900,4,2.5,Audubon Ridge,2886,13503,1994,150,100,,Active,,,http://www.redfin.com/OH/Massillon/8324-Audubon-St-NW-44646/home/66534767,Yes MLS,4073039,N,Y,40.8433468,-81.5061814
MLS Listing,,Vacant Land,"#6 Portage St NW",Massillon,OH,44646,239000,,,The Manors at Portage,,223462,,151,,292,Active,,,http://www.redfin.com/OH/Massillon/6-Portage-St-NW-44646/home/160535456,Yes MLS,4072630,N,Y,40.881673,-81.510022
MLS Listing,,Vacant Land,Lutz Ave NW,Massillon,OH,44646,74900,,,Massillon,,24393,,151,,,Active,,,http://www.redfin.com/OH/Massillon/Lutz-Ave-NW-44646/home/75745478,Yes MLS,4072403,N,Y,40.893358,-81.518431
MLS Listing,,Vacant Land,9502 Emerald Isle St NW,Canal Fulton,OH,44614,199000,,,Reserve at Emerald Estate,,153331,,154,,25,Active,,,http://www.redfin.com/OH/Canal-Fulton/9502-Emerald-Isle-St-NW-44614/home/113156278,Yes MLS,4072057,N,Y,40.8904561,-81.5274289
MLS Listing,,Vacant Land,Greenwich Blvd NW,Massillon,OH,44646,155000,,,Greenwich Place,,39204,,155,,38,Active,,,http://www.redfin.com/OH/Jackson-Township/Greenwich-Blvd-44646/home/100790280,Yes MLS,4071917,N,Y,40.868904,-81.498272
MLS Listing,,Single Family Residential,7929 Greenwich Blvd NW,Massillon,OH,44646,1200000,5,6.0,Greenwich Place,6558,31363,2013,158,183,38,Active,,,http://www.redfin.com/OH/Massillon/7929-Greenwich-Blvd-44646/home/66724332,Yes MLS,4070839,N,Y,40.8693519,-81.4993313
MLS Listing,,Vacant Land,Clubview St NW,Massillon,OH,44646,92500,,,Rolling Green Estates,,22651,,177,,,Active,,,http://www.redfin.com/OH/MASSILLON/CLUBVIEW-ST-NW-44646/home/160587414,Yes MLS,4066863,N,Y,40.888521,-81.516162
MLS Listing,,Vacant Land,Clubview St NW,Massillon,OH,44646,92500,,,Rolling Green Estates,,23522,,177,,,Active,,,http://www.redfin.com/OH/MASSILLON/CLUBVIEW-ST-NW-44646/home/160587417,Yes MLS,4066861,N,Y,40.888493,-81.515763
MLS Listing,,Vacant Land,Clubview St NW,Massillon,OH,44646,95500,,,Rolling Green Estates,,27007,,177,,,Active,,,http://www.redfin.com/OH/MASSILLON/CLUBVIEW-ST-NW-44646/home/160587408,Yes MLS,4066856,N,Y,40.888465,-81.515351
MLS Listing,,Vacant Land,Greenview Ave NW,Massillon,OH,44646,94500,,,Rolling Green Estates,,20473,,177,,,Active,,,http://www.redfin.com/OH/Massillon/Ohio-Ave-NW-44646/home/66218987,Yes MLS,4066842,N,Y,40.852915,-81.501576
MLS Listing,,Vacant Land,Clubview St NW,Massillon,OH,44646,90500,,,Rolling Green Estates,,24829,,182,,,Active,,,http://www.redfin.com/OH/MASSILLON/CLUBVIEW-ST-NW-44646/home/160587416,Yes MLS,4065852,N,Y,40.887729,-81.515398
MLS Listing,,Vacant Land,Rolling Green Ave NW,Massillon,OH,44646,124900,,,Rolling Green Estates,,74052,,182,,,Active,,,http://www.redfin.com/OH/Jackson-Township/Rolling-Green-Ave-NW-44646/home/160587388,Yes MLS,4065845,N,Y,40.887692,-81.513012
MLS Listing,,Vacant Land,Clubview St NW,Massillon,OH,44646,79900,,,Rolling Green Estates,,24829,,182,,,Active,,,http://www.redfin.com/OH/MASSILLON/CLUBVIEW-ST-NW-44646/home/160587389,Yes MLS,4065842,N,Y,40.888556,-81.518006
MLS Listing,,Vacant Land,Clubview St NW,Massillon,OH,44646,85500,,,Rolling Green Estates,,20473,,182,,,Active,,,http://www.redfin.com/OH/MASSILLON/CLUBVIEW-ST-NW-44646/home/160587386,Yes MLS,4065837,N,Y,40.888547,-81.516903
MLS Listing,,Vacant Land,Clubview St NW,Massillon,OH,44646,91500,,,Rolling Green Estates,,25264,,182,,,Active,,,http://www.redfin.com/OH/MASSILLON/CLUBVIEW-ST-NW-44646/home/144830751,Yes MLS,4065835,N,Y,40.887809,-81.516828
MLS Listing,,Vacant Land,Clubview St NW,Massillon,OH,44646,79900,,,Rolling Green Estates,,22215,,182,,,Active,,,http://www.redfin.com/OH/MASSILLON/CLUBVIEW-ST-NW-44646/home/144278990,Yes MLS,4065828,N,Y,40.88779,-81.518037
MLS Listing,,Single Family Residential,8722 Scotsbury Gln,Massillon,OH,44646,465000,3,2.0,Scotsbury Meadows,2332,,2016,211,199,10,Active,July-28-2019 02:00 PM,July-28-2019 04:00 PM,http://www.redfin.com/OH/Massillon/8722-Scotsbury-Glen-St-NW-44646/home/100810293,Yes MLS,4060018,N,Y,40.8563688,-81.5126237
MLS Listing,,Vacant Land,Kilkenny Cir NW,Massillon,OH,44646,57500,,,Wexford Estates,,33105,,249,,,Active,,,http://www.redfin.com/OH/Jackson-Township/Kilkenny-Cir-NW-44646/home/75756530,Yes MLS,4054222,N,Y,40.872963,-81.497675
MLS Listing,,Townhouse,874 Wales Rd NE,Massillon,OH,44646,44900,3,2.0,Massillon,1488,6098,1900,281,30,,Active,,,http://www.redfin.com/OH/Massillon/874-Wales-Rd-NE-44646/home/66343539,Yes MLS,4046210,N,Y,40.8061436,-81.5092982
MLS Listing,,Vacant Land,1825 Bloominghills Pl SE,Massillon,OH,44646,19900,,,Massillon,,,,308,,,Active,,,http://www.redfin.com/OH/Massillon/1825-Bloominghills-PL-SE-44646/home/166751123,Yes MLS,4039250,N,Y,40.776326,-81.509325
MLS Listing,,Vacant Land,1845 Bloominghills Pl SE,Massillon,OH,44646,19900,,,Massillon,,,,308,,,Active,,,http://www.redfin.com/OH/MASSILLON/1845-BLOOMINGHILLS-PL-SE-44646/home/75793941,Yes MLS,4039249,N,Y,40.775999,-81.509345
MLS Listing,,Vacant Land,1870 Bloominghills Pl SE,Massillon,OH,44646,19900,,,Massillon,,,,308,,,Active,,,http://www.redfin.com/OH/Massillon/1870-Blooming-Hills-Pl-SE-44646/home/75793949,Yes MLS,4039247,N,Y,40.7755095,-81.5087031
MLS Listing,,Vacant Land,1840 Bloominghills Pl SE,Massillon,OH,44646,19900,,,Massillon,,,,308,,,Active,,,http://www.redfin.com/OH/MASSILLON/1840-BLOOMINGHILLS-PL-SE-44646/home/75770958,Yes MLS,4039245,N,Y,40.775986,-81.50875
MLS Listing,,Vacant Land,1820 Bloominghills Pl SE,Massillon,OH,44646,19900,,,Massillon,,,,308,,,Active,,,http://www.redfin.com/OH/Massillon/1820-Blooming-Hills-Pl-SE-44646/home/164332880,Yes MLS,4039242,N,Y,40.7762698,-81.5087364
MLS Listing,,Vacant Land,1875 Bloominghills Pl SE,Massillon,OH,44646,19900,,,Massillon,,,,308,,,Active,,,http://www.redfin.com/OH/Massillon/1875-Blooming-Hills-Pl-SE-44646/home/75793938,Yes MLS,4039241,N,Y,40.7754565,-81.5090647
MLS Listing,,Vacant Land,1895 Bloominghills Pl SE,Massillon,OH,44646,19900,,,Massillon,,,,308,,,Active,,,http://www.redfin.com/OH/MASSILLON/1895-BLOOMINGHILLS-PL-SE-44646/home/75770956,Yes MLS,4039238,N,Y,40.775103,-81.509286
MLS Listing,,Vacant Land,1885 Bloominghills Pl SE,Massillon,OH,44646,19900,,,Massillon,,,,308,,,Active,,,http://www.redfin.com/OH/MASSILLON/1885-BLOOMINGHILLS-PL-SE-44646/home/75770955,Yes MLS,4039236,N,Y,40.775258,-81.509463
MLS Listing,,Vacant Land,1860 Bloominghills Pl SE,Massillon,OH,44646,19900,,,Massillon,,,,308,,,Active,,,http://www.redfin.com/OH/MASSILLON/1860-BLOOMINGHILLS-PL-SE-44646/home/75793950,Yes MLS,4039234,N,Y,40.775657,-81.508769
MLS Listing,,Vacant Land,1880 Bloominghills Pl SE,Massillon,OH,44646,19900,,,Massillon,,,,308,,,Active,,,http://www.redfin.com/OH/Massillon/1880-Greentree-Pl-SE-44646/home/66520264,Yes MLS,4039233,N,Y,40.7752663,-81.5077143
MLS Listing,,Vacant Land,1830 Bloominghills Pl SE,Massillon,OH,44646,19900,,,Massillon,,,,308,,,Active,,,http://www.redfin.com/OH/Massillon/1830-Blooming-Hills-Pl-SE-44646/home/75770960,Yes MLS,4039232,N,Y,40.7759931,-81.5087097
MLS Listing,,Vacant Land,1835 Bloominghills Pl SE,Massillon,OH,44646,19900,,,Massillon,,,,308,,,Active,,,http://www.redfin.com/OH/Massillon/1835-Bloominghills-PL-SE-44646/home/166751105,Yes MLS,4039231,N,Y,40.776172,-81.509336
MLS Listing,,Vacant Land,15390 Candell St SE,Massillon,OH,44646,15900,,,Massillon,,,,308,,,Active,,,http://www.redfin.com/OH/Unknown/15390-Candell-Ave-SW-44646/home/147151382,Yes MLS,4039228,N,Y,40.773227,-81.504084
MLS Listing,,Vacant Land,Forest Ave SE,Massillon,OH,44646,14900,,,Massillon,,,,308,,,Active,,,http://www.redfin.com/OH/Massillon/Forest-Ave-SE-44646/home/75814841,Yes MLS,4039227,N,Y,40.776572,-81.509186
MLS Listing,,Vacant Land,7872 Greenwich Blvd NW,Massillon,OH,44646,115000,,,Massillon,,54450,,336,,,Active,,,http://www.redfin.com/OH/Massillon/7872-Greenwich-Blvd-44646/home/66724334,Yes MLS,4031530,N,Y,40.8702203,-81.4982867
MLS Listing,,Vacant Land,Lot #223 Ashwell Ct,Green,OH,44685,90000,,,Kings Ridge,,19166,,396,,13,Active,,,http://www.redfin.com/OH/Green/Lot-223-Ashwell-Ct-44685/home/146103840,Yes MLS,4012213,N,Y,40.769851,-81.471301
MLS Listing,,Vacant Land,Lot #221 Ashwell Ct,Green,OH,44685,88500,,,Kings Ridge,,14374,,396,,13,Active,,,http://www.redfin.com/OH/Green/Lot-221-Ashwell-Ct-44685/home/146103800,Yes MLS,4012208,N,Y,40.769851,-81.471301
MLS Listing,,Vacant Land,Lot #220 Ashwell Ct,Green,OH,44685,89500,,,Kings Ridge,,13939,,396,,13,Active,,,http://www.redfin.com/OH/Green/Lot-220-Ashwell-Ct-44685/home/146104117,Yes MLS,4012200,N,Y,40.769851,-81.471301
MLS Listing,,Vacant Land,Lot #209 Ashwell Ct,Green,OH,44685,88500,,,Kings Ridge,,18295,,399,,13,Active,,,http://www.redfin.com/OH/Green/Lot-209-Ashwell-Ct-44685/home/146088896,Yes MLS,4011554,N,Y,40.769851,-81.471301
MLS Listing,,Vacant Land,Fairgrove Ave,Massillon,OH,44646,16000,,,Massillon,,,,518,,,Active,,,http://www.redfin.com/OH/Massillon/Fairgrove-Ave-SW-44646/home/75791480,Yes MLS,3975372,N,Y,40.748738,-81.481267
MLS Listing,,Vacant Land,Fairgrove Ave,Massillon,OH,44646,16000,,,Massillon,,,,518,,,Active,,,http://www.redfin.com/OH/Massillon/Fairgrove-Ave-SW-44646/home/75791482,Yes MLS,3975364,N,Y,40.748408,-81.481288
MLS Listing,,Vacant Land,Serenity Dr NW,Massillon,OH,44646,30000,,,Serenity Shores Condo,,,,806,,100,Active,,,http://www.redfin.com/OH/Jackson-Township/Serenity-Dr-NW-44646/unit-2/home/66726224,Yes MLS,3902745,N,Y,40.859686,-81.511033
MLS Listing,,Vacant Land,Putney Ct,Massillon,OH,44646,55000,,,Carrington,,12632,,1424,,289,Active,,,http://www.redfin.com/OH/Jackson-Township/Putney-Ct-Cir-NW-44646/home/75767350,Yes MLS,3743959,N,Y,40.870483,-81.50782
MLS Listing,,Vacant Land,6372 Massachusetts Ave SE,Massillon,OH,44646,4000,,,Massillon,,4791,,1604,,,Active,,,http://www.redfin.com/OH/Massillon/6372-Massachusetts-Ave-SE-44646/home/146247707,Yes MLS,3467548,N,Y,40.796687,-81.502585
MLS Listing,,Vacant Land,Rolling Green Ave NW,Massillon,OH,44646,50000,,,Fairways at Rolling Green,,17424,,1604,,10,Active,,,http://www.redfin.com/OH/Jackson-Township/Rolling-Green-Ave-NW-44646/home/100790138,Yes MLS,3478970,N,Y,40.89026,-81.512334
For-Sale-by-Owner Listing,,Single Family Residential,4467 Samuel Ct NW,Massillon,OH,44647,192850,4,3.0,Massillon,1918,9760,2018,104,101,,Active,,,http://www.redfin.com/OH/Massillon/4467-Samuel-Ct-NW-44647/home/161733591,Fizber.com,5012021,N,Y,40.7967262,-81.5215073
For-Sale-by-Owner Listing,,Multi-Family (2-4 Unit),1245 Huron Rd SE,Massillon,OH,44646,47000,4,2.0,Massillon,1500,3200,1946,114,31,,Active,,,http://www.redfin.com/OH/Massillon/1245-Huron-Rd-SE-44646/home/66584037,Fizber.com,5010111,N,Y,40.7824125,-81.5012824
