SALE TYPE,SOLD DATE,PROPERTY TYPE,ADDRESS,CITY,STATE OR PROVINCE,ZIP OR POSTAL CODE,PRICE,BEDS,BATHS,LOCATION,SQUARE FEET,LOT SIZE,YEAR BUILT,DAYS ON MARKET,$/SQUARE FEET,HOA/MONTH,STATUS,NEXT OPEN HOUSE START TIME,NEXT OPEN HOUSE END TIME,URL (SEE http://www.redfin.com/buy-a-home/comparative-market-analysis FOR INFO ON PRICING),SOURCE,MLS#,FAVORITE,INTERESTED,LATITUDE,LONGITUDE
MLS Listing,,Single Family Residential,8731 Castlecreek Dr,Washington Township,OH,45458,195000,4,3.0,Oak Creek,2376,20908,1978,1,82,,Active,,,http://www.redfin.com/OH/Washington-Township/8731-Castlecreek-Dr-45458/home/75897046,Dayton MLS,797011,N,Y,39.618909,-84.1718892
MLS Listing,,Single Family Residential,126 Gershwin Dr,Centerville,OH,45458,199900,3,2.0,Son,1718,13751,1961,1,116,,Active,July-28-2019 01:00 PM,July-28-2019 03:00 PM,http://www.redfin.com/OH/Dayton/126-Gershwin-Dr-45458/home/82746558,Dayton MLS,796957,N,Y,39.6247374,-84.1678511
MLS Listing,,Single Family Residential,9095 S Normandy Ln,Washington Township,OH,45458,259900,4,3.0,Beacon Hill,2436,21344,1978,1,107,,Active,,,http://www.redfin.com/OH/Dayton/9095-S-Normandy-Ln-45458/home/75989452,Dayton MLS,796882,N,Y,39.6089077,-84.1713123
MLS Listing,,Single Family Residential,9775 Greenside Ct,Centerville,OH,45458,339900,2,2.0,Yankee Trace Sec 06-a,2108,20908,1997,2,161,134,Active,,,http://www.redfin.com/OH/Washington-Township/9775-Greenside-Ct-45458/home/82747238,Dayton MLS,796538,N,Y,39.6046265,-84.1986863
MLS Listing,,Condo/Co-op,1238 Hollowbrook Dr,Washington Township,OH,45458,78000,2,2.0,Hollows Sec 02,900,1306,1983,2,87,155,Active,July-28-2019 02:00 PM,July-28-2019 04:00 PM,http://www.redfin.com/OH/Dayton/1238-Hollowbrook-Dr-45458/home/100897085,Dayton MLS,796764,N,Y,39.622527,-84.1964689
MLS Listing,,Single Family Residential,8700 Dijon Ct,Centerville,OH,45458,435000,4,3.0,Enclaves Sec 01,4524,13982,2007,2,96,42,Active,,,http://www.redfin.com/OH/Dayton/8700-Dijon-Ct-45458/home/82823945,Dayton MLS,796335,N,Y,39.6141143,-84.1158258
MLS Listing,,Single Family Residential,1127 Petrus Ct,Clearcreek Township,OH,45458,504900,4,3.0,Soraya Farms 5,3576,9426,2019,3,141,62,Active,,,http://www.redfin.com/OH/SUGARCRK-TWP/1127-Petrus-CT-45458/home/167881372,Dayton MLS,796721,N,Y,39.5978465,-84.1540659
MLS Listing,,Single Family Residential,1681 Summit Creek Dr,Clearcreek Township,OH,45458,284900,3,2.0,Vilwncrk/blvdwc4a,1632,6599,2015,3,175,73,Active,July-28-2019 02:00 PM,July-28-2019 04:00 PM,http://www.redfin.com/OH/Centerville/1681-Summit-Creek-Dr-45458/home/113350359,Dayton MLS,796509,N,Y,39.5761776,-84.1585246
MLS Listing,,Single Family Residential,9407 Oak Brook Dr,Centerville,OH,45458,365000,4,4.0,Vilwncrk/trnlfwnc,3574,18730,2010,3,102,73,Active,July-27-2019 01:00 PM,July-27-2019 03:00 PM,http://www.redfin.com/OH/Dayton/9407-Oak-Brook-Dr-45458/home/100822932,Dayton MLS,796699,N,Y,39.5747818,-84.1605983
MLS Listing,,Single Family Residential,220 Hibberd Dr,Washington Township,OH,45458,260000,4,3.0,Wrens Cross,2576,23958,1976,5,101,,Active,,,http://www.redfin.com/OH/Dayton/220-Hibberd-Dr-45458/home/82840834,Dayton MLS,791352,N,Y,39.599995,-84.1672124
MLS Listing,,Single Family Residential,1184 Quiet Brook Trl,Washington Township,OH,45458,389900,4,4.0,Beechwood Spgs Sec 05,2972,20908,1992,7,131,,Active,,,http://www.redfin.com/OH/Dayton/1184-Quiet-Brook-Trl-45458/home/82856038,Dayton MLS,796259,N,Y,39.6114254,-84.1429983
MLS Listing,,Single Family Residential,1725 Wandering Stream Way,Clearcreek Township,OH,45458,324900,4,3.0,Villages Of Winding Creek,2488,13229,2018,7,131,73,Active,July-28-2019 12:00 AM,July-28-2019 11:59 PM,http://www.redfin.com/OH/Washington-Township/1725-Wandering-Stream-Way-45458/home/167066783,Dayton MLS,796466,N,Y,39.571923,-84.154512
MLS Listing,,Single Family Residential,11060 Pennfield Rd,Washington Township,OH,45458,290000,3,2.0,Centerville Forest,1795,24393,1998,7,162,,Active,,,http://www.redfin.com/OH/Washington-Township/11060-Pennfield-Rd-45458/home/75927688,Dayton MLS,796133,N,Y,39.5823984,-84.1640396
MLS Listing,,Single Family Residential,490 Greystone Dr,Clearcreek Township,OH,45458,319900,4,3.0,Glenridge 1,2780,15751,2001,7,115,10,Active,,,http://www.redfin.com/OH/Centerville/490-Greystone-Dr-45458/home/82789252,Dayton MLS,796346,N,Y,39.5702044,-84.182869
MLS Listing,,Single Family Residential,1250 Brainard Woods Dr,Centerville,OH,45458,324900,3,3.0,Black Oak Estates,3256,13939,1970,7,100,,Active,,,http://www.redfin.com/OH/Dayton/1250-Brainard-Woods-Dr-45458/home/100899468,Dayton MLS,796362,N,Y,39.6229857,-84.1290631
MLS Listing,,Single Family Residential,11019 Cold Spring Dr,Washington Township,OH,45458,1195000,6,6.0,Springs/villages/winding Crk S,6932,48830,2012,8,172,218,Active,,,http://www.redfin.com/OH/Dayton/11019-Cold-Spring-Dr-45458/home/76007649,Dayton MLS,795100,N,Y,39.5826171,-84.1562846
MLS Listing,,Single Family Residential,10736 Falls Creek Ln,Washington Twp,OH,45458,799000,4,4.5,Montgomery Co.,6541,28314,2000,8,122,25,Active,,,http://www.redfin.com/OH/Dayton/10736-Falls-Creek-Ln-45458/home/75937791,Cincy MLS,1630703,N,Y,39.587659,-84.191627
MLS Listing,,Single Family Residential,10038 Cobble Brook Dr,Centerville,OH,45458,357990,4,4.0,Winding Creek,,20146,2019,8,,73,Active,,,http://www.redfin.com/OH/Washington-Township/10038-Cobble-Brook-Dr-45458/home/167622497,Dayton MLS,796338,N,Y,39.5832424,-84.1594486
MLS Listing,,Single Family Residential,8841 Windbluff,Washington Township,OH,45458,333000,5,4.0,Washington Creek,3133,18151,1978,8,106,,Active,,,http://www.redfin.com/OH/Washington-Township/8841-Windbluff-Pt-45458/home/100896704,Dayton MLS,796310,N,Y,39.6145741,-84.1209396
MLS Listing,,Single Family Residential,1348 Courtyard Pl,Centerville,OH,45458,499000,3,2.0,Yankee Trace,3226,14810,2000,8,155,67,Active,,,http://www.redfin.com/OH/Dayton/1348-Courtyard-Pl-45458/home/100900336,Dayton MLS,796221,N,Y,39.5951366,-84.1971212
MLS Listing,,Single Family Residential,1657 Summit Creek Dr,Centerville,OH,45458,309900,4,3.0,Vilwncrk/blvdwc4a,2811,6599,2016,8,110,73,Active,,,http://www.redfin.com/OH/Centerville/1657-Summit-Creek-Dr-45458/home/113350415,Dayton MLS,796289,N,Y,39.5762179,-84.1593033
MLS Listing,,Single Family Residential,10251 Cherry Tree Ter,Washington Township,OH,45458,479900,4,3.0,Washington Township Estates,3972,20037,1989,9,121,,Active,,,http://www.redfin.com/OH/Dayton/10251-Cherry-Tree-Ter-45458/home/75989971,Dayton MLS,796227,N,Y,39.5915753,-84.1230221
MLS Listing,,Single Family Residential,9965 Mintwood Rd,Clearcreek Township,OH,45458,544900,4,3.0,Soraya Farms 5,3600,13769,2019,9,151,62,Active,July-27-2019 12:00 PM,July-27-2019 06:00 PM,http://www.redfin.com/OH/Dayton/9965-Mintwood-Rd-45458/home/165555354,Dayton MLS,796174,N,Y,39.5812741,-84.1686962
MLS Listing,,Single Family Residential,192 Summerford Pl,Washington Township,OH,45458,489900,5,3.0,Weatherstone Estates,5468,15245,2014,10,90,31,Active,,,http://www.redfin.com/OH/Dayton/192-Summerford-Pl-45458/home/100383638,Dayton MLS,796192,N,Y,39.5851114,-84.1639981
MLS Listing,,Condo/Co-op,245 Queens Xing,Washington Township,OH,45458,152900,2,3.0,Nantucket Landing Condo,1288,2178,1987,10,119,342,Active,July-28-2019 02:00 PM,July-28-2019 04:00 PM,http://www.redfin.com/OH/Dayton/245-Queens-Xing-45458/home/82737685,Dayton MLS,796019,N,Y,39.603092,-84.15978
MLS Listing,,Condo/Co-op,12 Mallard Glen Dr #8,Centerville,OH,45458,95900,2,2.0,Montgomery Co.,987,,1989,10,97,218,Active,,,http://www.redfin.com/OH/Dayton/12-Mallard-Glen-Dr-45458/unit-8/home/100901200,Cincy MLS,1630229,N,Y,39.617894,-84.160883
MLS Listing,,Single Family Residential,9467 Lantern Way,Centerville,OH,45458,440000,4,4.0,Yankee Trace,,,1998,10,,57,Active,,,http://www.redfin.com/OH/Washington-Township/9467-Lantern-Way-45458/home/75990891,Dayton MLS,796064,N,Y,39.6092346,-84.1943205
MLS Listing,,Single Family Residential,9640 Tai Trl,Washington Township,OH,45458,1495000,5,7.0,Hampton Farms Estates,10007,413820,1989,11,149,,Active,,,http://www.redfin.com/OH/Dayton/9640-Tai-Trce-45458/home/75928356,Dayton MLS,796022,N,Y,39.604857,-84.112818
MLS Listing,,Single Family Residential,1229 Waters Edge Dr,Centerville,OH,45458,524900,4,4.5,Montgomery Co.,,31668,1995,11,,67,Active,,,http://www.redfin.com/OH/Washington-Township/1229-Waters-Edge-Dr-45458/home/100900106,Cincy MLS,1629884,N,Y,39.604819,-84.1944852
MLS Listing,,Single Family Residential,9340 Oak Brook Dr,Clearcreek Township,OH,45458,314900,4,3.0,V/wncrk/trulfwnc 4,2737,11382,2016,14,115,72,Active,July-28-2019 12:00 PM,July-28-2019 02:00 PM,http://www.redfin.com/OH/Centerville/9340-Oak-Brook-Dr-45458/home/144819696,Dayton MLS,795877,N,Y,39.5727409,-84.159289
MLS Listing,,Single Family Residential,10146 Sawtry Ln,Washington Township,OH,45458,273900,3,2.0,Somerset Sec 02,2052,9147,2005,14,133,160,Active,July-28-2019 02:00 PM,July-28-2019 04:00 PM,http://www.redfin.com/OH/Dayton/10146-Sawtry-Ln-45458/home/82742582,Dayton MLS,795867,N,Y,39.5962077,-84.173747
MLS Listing,,Single Family Residential,1772 Winding Run Blvd,Clearcreek Township,OH,45458,407935,4,2.0,Clearcreek Township,,,2019,15,,73,Active,,,http://www.redfin.com/OH/Dayton/1772-Winding-Run-Blvd-45458/home/167240167,Dayton MLS,795793,N,Y,39.5706334,-84.1578037
MLS Listing,,Single Family Residential,9699 Olde Georgetown Way,Washington Twp,OH,45458,289900,3,3.5,Montgomery Co.,2164,7841,2001,15,134,76,Active,,,http://www.redfin.com/OH/Centerville/9699-Olde-Georgetown-Way-45458/home/167222626,Cincy MLS,1629641,N,Y,39.607636,-84.2045961
MLS Listing,,Single Family Residential,473 Maple Springs Dr,Washington Township,OH,45458,329900,4,3.0,Atchison Creek,3184,15681,1995,16,104,,Active,August-4-2019 02:00 PM,August-4-2019 04:00 PM,http://www.redfin.com/OH/Washington-Township/473-Maple-Springs-Dr-45458/home/76009363,Dayton MLS,795698,N,Y,39.6104663,-84.151902
MLS Listing,,Single Family Residential,1808 Winding Run Blvd,Waynesville,OH,45458,249990,3,2.0,Waynesville,,,2019,16,,73,Active,,,http://www.redfin.com/OH/Dayton/1808-Winding-Run-Blvd-45458/home/167210969,Dayton MLS,795678,N,Y,39.5706334,-84.1578037
MLS Listing,,Condo/Co-op,8058 Timberlodge Trl #31,Washington Township,OH,45458,99900,2,2.0,Timberlodge Condo,1665,1306,1981,16,60,260,Active,,,http://www.redfin.com/OH/Dayton/8058-Timberlodge-Trl-45458/unit-31/home/82735103,Dayton MLS,795591,N,Y,39.625499,-84.183674
MLS Listing,,Single Family Residential,2006 Buglers Sound,Washington Township,OH,45458,419900,3,3.0,Washington Township,,12689,,17,,75,Active,,,http://www.redfin.com/OH/Dayton/2006-Buglers-Sound-45458/home/100856125,Dayton MLS,795590,N,Y,39.6025647,-84.1296155
MLS Listing,,Single Family Residential,1764 Wandering Stream Way,Clearcreek Township,OH,45458,319000,3,2.0,Clearcreek Township,,,2019,18,,73,Active,,,http://www.redfin.com/OH/Washington-Township/1764-Wandering-Stream-Way-45458/home/167183874,Dayton MLS,795491,N,Y,39.572426,-84.152178
MLS Listing,,Single Family Residential,1151 Sarah Freeman Dr,Washington Twp,OH,45458,339000,4,3.5,Montgomery Co.,2368,,2014,18,143,91,Active,,,http://www.redfin.com/OH/Dayton/1151-Sarah-Freeman-Dr-45458/home/100856690,Cincy MLS,1629260,N,Y,39.583917,-84.1826184
MLS Listing,,Single Family Residential,9725 Southern Belle Ct,Washington Twp,OH,45458,329900,3,2.0,Montgomery Co.,1979,,2015,18,167,33,Active,July-28-2019 12:00 AM,July-28-2019 11:59 PM,http://www.redfin.com/OH/Dayton/9725-Southern-Belle-Ct-45458/home/87946692,Cincy MLS,1629240,N,Y,39.6003679,-84.1845549
MLS Listing,,Condo/Co-op,69 Old Pond Rd #16300,Springboro,OH,45066,179900,2,2.0,Springboro,,,,18,,146,Active,,,http://www.redfin.com/OH/Springboro/69-Old-Pond-Rd-45066/unit-16300/home/167182174,Cincy MLS,1629182,N,Y,39.585354,-84.208351
MLS Listing,,Condo/Co-op,1428 Bourdeaux Way,Clearcreek Township,OH,45458,274900,2,2.0,Soraya Farms,1737,7710,2012,18,158,180,Active,,,http://www.redfin.com/OH/Centerville/1428-Bourdeaux-Way-45458/home/75877565,Dayton MLS,795394,N,Y,39.577052,-84.164329
MLS Listing,,Single Family Residential,2019 Buglers Sound,Washington Twp,OH,45458,369127,3,2.5,Montgomery Co.,,13961,,18,,75,Active,,,http://www.redfin.com/OH/Dayton/2019-Buglers-Sound-45458/home/100856110,Cincy MLS,1629149,N,Y,39.6031113,-84.1289931
MLS Listing,,Single Family Residential,232 Gerber Ct,Centerville,OH,45458,205000,3,2.0,Son,1956,12501,1961,20,105,,Active,,,http://www.redfin.com/OH/Dayton/232-Gerber-Ct-45458/home/75913956,Dayton MLS,795322,N,Y,39.6239787,-84.1675027
MLS Listing,,Single Family Residential,10609 Willow Brook Rd,Washington Twp,OH,45458,479900,4,4.0,Montgomery Co.,5177,17860,1995,21,93,,Active,,,http://www.redfin.com/OH/Dayton/10609-Willow-Brook-Rd-45458/home/82735521,Cincy MLS,1628996,N,Y,39.587031,-84.151613
MLS Listing,,Single Family Residential,184 Tuxworth Rd,Centerville,OH,45458,212900,3,2.0,Son Dev Co Sec 03,1852,14701,1961,22,115,,Active,July-28-2019 12:00 PM,July-28-2019 02:00 PM,http://www.redfin.com/OH/Dayton/184-Tuxworth-Rd-45458/home/75959530,Dayton MLS,793198,N,Y,39.6230678,-84.1526233
MLS Listing,,Townhouse,538 Legendary Way,Centerville,OH,45458,329000,3,2.0,Highlands/yankee Trace Sec 2a,1892,7666,2011,23,174,67,Active,,,http://www.redfin.com/OH/Dayton/538-Legendary-Way-45458/home/100856653,Dayton MLS,795196,N,Y,39.5961259,-84.1798094
MLS Listing,,Single Family Residential,10116 Park Edge Dr,Washington Township,OH,45458,429000,4,4.0,Willowbrook Estates,4595,19166,1989,23,93,,Active,,,http://www.redfin.com/OH/Centerville/10116-Park-Edge-Dr-45458/home/75959195,Dayton MLS,795080,N,Y,39.5978353,-84.1486457
MLS Listing,,Condo/Co-op,173 Queens Xing,Washington Township,OH,45458,115000,2,2.0,Nantucket Landing South Condo,1029,1306,1989,24,112,204,Active,,,http://www.redfin.com/OH/Dayton/173-Queens-Xing-45458/unit-167/home/100898260,Dayton MLS,794951,N,Y,39.602334,-84.159569
MLS Listing,,Single Family Residential,10074 Yearling Run,Washington Township,OH,45458,425000,4,3.0,Yearling Farms Sec 1,3225,15986,2015,24,132,29,Active,,,http://www.redfin.com/OH/Dayton/10074-Yearling-Run-S-45458/home/75977379,Dayton MLS,794985,N,Y,39.5963487,-84.1382986
MLS Listing,,Single Family Residential,9661 Linden Brook Dr,Clearcreek Township,OH,45458,365900,5,3.0,Vilwncrk/blvdwc4b,2932,16217,2015,25,125,73,Active,July-28-2019 02:00 AM,July-28-2019 04:00 PM,http://www.redfin.com/OH/Centerville/9661-Linden-Brook-Dr-45458/home/102073059,Dayton MLS,794941,N,Y,39.574907,-84.156683
MLS Listing,,Single Family Residential,10810 Falls Creek Ln,Washington Township,OH,45458,879000,5,5.0,Woods,6682,40510,2002,25,132,27,Active,July-28-2019 01:00 PM,July-28-2019 04:00 PM,http://www.redfin.com/OH/Dayton/10810-Falls-Creek-Ln-45458/home/100931173,Dayton MLS,795019,N,Y,39.583859,-84.1920139
MLS Listing,,Single Family Residential,1711 Washington Creek Ln,Washington Township,OH,45458,239900,3,4.0,Washington Creek,2483,15999,1975,25,97,,Active,,,http://www.redfin.com/OH/Dayton/1711-Washington-Creek-Ln-45458/home/100895643,Dayton MLS,794608,N,Y,39.6161143,-84.1347118
MLS Listing,,Single Family Residential,1521 Thomas Farm Ct,Washington Township,OH,45458,299000,4,3.0,Chelsea Trace,2858,16988,1994,29,105,10,Active,July-28-2019 02:00 PM,July-28-2019 04:00 PM,http://www.redfin.com/OH/Dayton/1521-Thomas-Farm-Ct-45458/home/100896419,Dayton MLS,794413,N,Y,39.5895136,-84.1503357
MLS Listing,,Single Family Residential,10075 Pebblestone Dr,Washington Township,OH,45458,379900,4,3.0,Kensington Grove,2572,16117,1996,29,148,23,Active,,,http://www.redfin.com/OH/Dayton/10075-Pebblestone-Dr-45458/home/100895173,Dayton MLS,794623,N,Y,39.5954287,-84.1137224
MLS Listing,,Condo/Co-op,8631 Timber Park Dr,Washington Township,OH,45458,195400,3,3.0,Timber Park Condo Sec 08,1622,1306,1998,29,120,202,Active,July-28-2019 02:00 PM,July-28-2019 04:00 PM,http://www.redfin.com/OH/Centerville/8631-Timber-Park-Dr-45458/home/75897740,Dayton MLS,794589,N,Y,39.617764,-84.191673
MLS Listing,,Single Family Residential,8971 Treeland Ln,Washington Township,OH,45458,399900,5,4.0,Treeland Acres,2880,22651,1988,29,139,,Active,,,http://www.redfin.com/OH/Washington-Township/8971-Treeland-Ln-45458/home/100897267,Dayton MLS,794582,N,Y,39.6141665,-84.1403393
MLS Listing,,Single Family Residential,9503 Gem Stone Dr,Clearcreek Twp.,OH,45458,375000,5,3.5,Clear Creek Twp.,3375,13939,1998,31,111,33,Active,,,http://www.redfin.com/OH/Centerville/9503-Gem-Stone-Dr-45458/home/82863377,Cincy MLS,1627745,N,Y,39.5765321,-84.1891099
MLS Listing,,Single Family Residential,9322 Paragon Mills Ln,Dayton,OH,45458,859900,5,5.0,Estates Of Paragon Sec 1,,,2005,32,,21,Active,,,http://www.redfin.com/OH/Washington-Township/9322-Paragon-Mills-Ln-45458/home/82846790,Dayton MLS,794384,N,Y,39.6090747,-84.1814683
MLS Listing,,Single Family Residential,371 Yankee Trace Dr,Centerville,OH,45458,649500,5,5.0,Yankee Trace,6250,23958,2004,37,104,67,Active,,,http://www.redfin.com/OH/Washington-Township/371-Yankee-Trace-Dr-45458/home/75929249,Dayton MLS,793899,N,Y,39.6083936,-84.1903662
MLS Listing,,Single Family Residential,1800 Winding Run Blvd,Clearcreek Township,OH,45458,294990,3,2.0,Clearcreek Township,,,2019,38,,73,Active,,,http://www.redfin.com/OH/Dayton/1800-Winding-Run-Blvd-45458/home/167108227,Dayton MLS,793915,N,Y,39.5706334,-84.1578037
MLS Listing,,Condo/Co-op,8475 Woodgrove Ct,Washington Township,OH,45458,115900,2,2.0,Woodgrove Condo,1167,2178,1986,39,99,200,Active,,,http://www.redfin.com/OH/Dayton/8475-Woodgrove-Dr-45458/unit-7/home/100898247,Dayton MLS,793719,N,Y,39.623173,-84.195272
MLS Listing,,Condo/Co-op,619 Legendary Way,Washington Twp,OH,45458,354900,3,2.5,Montgomery Co.,2764,6360,2016,40,128,220,Active,,,http://www.redfin.com/OH/Dayton/619-Legendary-Way-45458/home/101971962,Cincy MLS,1626437,N,Y,39.5970329,-84.1821982
MLS Listing,,Single Family Residential,2623 Woodbluff Ln,Washington Township,OH,45458,305000,4,3.0,Washington Creek,2862,16552,1987,43,107,,Active,July-28-2019 03:00 PM,July-28-2019 05:00 PM,http://www.redfin.com/OH/Washington-Township/2623-Woodbluff-Ln-45458/home/75959109,Dayton MLS,793331,N,Y,39.6071317,-84.1168981
MLS Listing,,Single Family Residential,10100 Apple Springs Dr,Washington Township,OH,45458,399900,4,4.0,Applegate Manor,2794,21344,1994,44,143,,Active,,,http://www.redfin.com/OH/Dayton/10100-Apple-Springs-Dr-45458/home/75959068,Dayton MLS,793307,N,Y,39.5983597,-84.1470793
MLS Listing,,Single Family Residential,9984 Mintwood Rd,Clearcreek Township,OH,45458,484900,4,4.0,Soraya Farms 3,4434,15524,2014,44,109,62,Active,,,http://www.redfin.com/OH/Dayton/9984-Mintwood-Rd-45458/home/105229327,Dayton MLS,793208,N,Y,39.5814526,-84.1685263
MLS Listing,,Single Family Residential,1297 Beech Trl,Centerville,OH,45458,359900,4,4.0,Chelsea Trace,3826,16552,2001,44,94,9,Active,,,http://www.redfin.com/OH/Dayton/1297-Beech-Trail-Dr-45458/home/100932380,Dayton MLS,793303,N,Y,39.5853012,-84.1453686
MLS Listing,,Ranch,2472 E Social Row Rd,Washington Township,OH,45458,2648150,3,2.0,Washington Township,1607,4614136,1948,45,1648,,Active,,,http://www.redfin.com/OH/Dayton/2472-E-Social-Row-Rd-45458/home/147835986,Dayton MLS,793225,N,Y,39.5851664,-84.117624
MLS Listing,,Vacant Land,1565 Ashbury Woods Dr,Washington Township,OH,45458,64600,,,Washington Township,,23958,,45,,,Active,,,http://www.redfin.com/OH/Centerville/1565-Ashbury-Woods-Dr-45458/home/75974453,Dayton MLS,792968,N,Y,39.583958,-84.197318
MLS Listing,,Vacant Land,1549 Ashbury Woods Dr,Washington Township,OH,45458,63944,,,Washington Township,,22651,,45,,,Active,,,http://www.redfin.com/OH/Centerville/1549-Ashbury-Woods-Dr-45458/home/75974455,Dayton MLS,792963,N,Y,39.583896,-84.196411
MLS Listing,,Vacant Land,1541 Ashbury Woods Dr,Washington Township,OH,45458,64780,,,Washington Township,,23958,,46,,,Active,,,http://www.redfin.com/OH/Centerville/1541-Ashbury-Woods-Dr-45458/home/75974444,Dayton MLS,793063,N,Y,39.5838899,-84.195982
MLS Listing,,Single Family Residential,8761 Sugarcreek Pt,Washington Township,OH,45458,272900,4,3.0,Washington Creek,2794,21601,1974,49,98,,Active,,,http://www.redfin.com/OH/Washington-Township/8761-Sugarcreek-Pt-45458/home/75897329,Dayton MLS,792884,N,Y,39.6174534,-84.1301764
MLS Listing,,Single Family Residential,432 Tillotson Pl,Washington Township,OH,45458,298500,4,3.0,Miller Farm,2338,13939,2000,50,128,26,Active,,,http://www.redfin.com/OH/Dayton/432-Tillotson-Pl-45458/home/100897711,Dayton MLS,792342,N,Y,39.624906,-84.1720128
MLS Listing,,Vacant Land,1236 Champion Way,Washington Township,OH,45458,59900,,,Bridle Creek Ranch,,14409,,50,,,Active,,,http://www.redfin.com/OH/Unknown/1236-Champions-Xing-45458/home/145278023,Dayton MLS,792729,N,Y,39.6058215,-84.1292253
MLS Listing,,Single Family Residential,459 Carrick Dr,Dayton,OH,45458,309500,3,2.0,Dayton,2334,10929,2015,51,133,160,Active,,,http://www.redfin.com/OH/Dayton/459-Carrick-Dr-45458/home/113025272,Dayton MLS,792245,N,Y,39.5958646,-84.1712916
MLS Listing,,Single Family Residential,10050 Cobble Brook Dr,Washington Township,OH,45458,359555,4,4.0,Washington Township,,,2019,51,,73,Active,,,http://www.redfin.com/OH/Washington-Township/10050-Cobble-Brook-Dr-45458/home/167040952,Dayton MLS,792655,N,Y,39.5832424,-84.1594486
MLS Listing,,Single Family Residential,1205 Club View Dr,Washington Twp,OH,45458,629900,4,3.0,Montgomery Co.,4646,13068,2002,52,136,68,Active,,,http://www.redfin.com/OH/Washington-Township/1205-Club-View-Dr-45458/home/84245993,Cincy MLS,1624538,N,Y,39.6026906,-84.1937438
MLS Listing,,Single Family Residential,9433 Ridings Blvd,Centerville,OH,45458,879900,4,6.0,Trails Saddle Creek,,39639,2008,55,,75,Active,,,http://www.redfin.com/OH/Centerville/9433-Ridings-Blvd-45458/home/82769586,Dayton MLS,792318,N,Y,39.6072626,-84.1358044
MLS Listing,,Single Family Residential,8753 Clyo Rd,Dayton,OH,45458,500000,3,2.0,Mrs,2288,304920,1950,57,219,,Active,,,http://www.redfin.com/OH/Dayton/8753-Clyo-Rd-45458/home/100894424,Dayton MLS,791998,N,Y,39.616321,-84.137976
MLS Listing,,Single Family Residential,9370 Maple Brook St,Clearcreek Township,OH,45458,414900,4,4.0,V/wncrk/trulfwnc 3,4146,19397,2014,57,100,73,Active,,,http://www.redfin.com/OH/Centerville/9370-Maple-Brook-St-45458/home/100824585,Dayton MLS,791305,N,Y,39.5741129,-84.1586319
MLS Listing,,Single Family Residential,10691 Falls Creek Ln,Washington Twp,OH,45458,400000,4,3.5,Montgomery Co.,4155,,1994,60,96,46,Active,,,http://www.redfin.com/OH/Dayton/10691-Falls-Creek-Ln-45458/home/100894987,Cincy MLS,1623699,N,Y,39.5885769,-84.19465
MLS Listing,,Single Family Residential,2780 E Spring Valley Pike,Dayton,OH,45458,799000,7,5.5,Washington,6430,145054,1971,63,124,,Active,,,http://www.redfin.com/OH/Washington-Township/2780-E-Spring-Valley-Pike-45458/home/75958069,CBRMLS,219018162,N,Y,39.611021,-84.11719
MLS Listing,,Single Family Residential,984 Sweeney Dr,Dayton,OH,45458,359900,4,3.0,Washington Trace Sec 04,3055,10789,2012,63,118,91,Active,,,http://www.redfin.com/OH/Dayton/984-Sweeney-Dr-45458/Ste/home/100855841,Dayton MLS,791520,N,Y,39.5854092,-84.1827866
MLS Listing,,Single Family Residential,9761 Tibbals Ct,Centerville,OH,45458,325000,4,3.0,Yankee Trace Sec 10,3684,12632,2001,63,88,67,Active,,,http://www.redfin.com/OH/Dayton/9761-Tibbals-Ct-45458/home/100900293,Dayton MLS,791548,N,Y,39.604665,-84.19986
MLS Listing,,Condo/Co-op,80 Old Pond Rd #18300,Springboro,OH,45066,189900,2,2.0,Springboro,,,,66,,146,Active,,,http://www.redfin.com/OH/Springboro/80-Old-Pond-Rd-45066/unit-18300/home/166764854,Cincy MLS,1622950,N,Y,39.585354,-84.208351
MLS Listing,,Vacant Land,2184 E Social Row Rd,Washington Twp,OH,45458,2087586,,,Montgomery Co.,,,,70,,,Active,,,http://www.redfin.com/OH/Dayton/2184-E-Social-Row-Rd-45458/home/147837150,Cincy MLS,1622542,N,Y,39.5812049,-84.1211681
MLS Listing,,Vacant Land,9690 Atchison Rd,Washington Township,OH,45458,275000,,,Washington Township,,124146,,71,,,Active,,,http://www.redfin.com/OH/Washington-Township/9690-Atchison-Rd-45458/home/75958108,Dayton MLS,791048,N,Y,39.6037533,-84.1511601
MLS Listing,,Condo/Co-op,9505 Tahoe Dr,Washington Township,OH,45458,239900,3,4.0,Twin Lakes West Condo,2625,1306,2006,71,91,195,Active,July-28-2019 02:00 PM,July-28-2019 04:00 PM,http://www.redfin.com/OH/Washington-Township/9505-Tahoe-Dr-45458/home/82821732,Dayton MLS,790338,N,Y,39.613727,-84.205614
MLS Listing,,Single Family Residential,10971 Cold Spring Dr,Centerville,OH,45458,750000,4,4.0,The Springs At The Village Of Winding Creek,4795,49005,2010,73,156,73,Active,,,http://www.redfin.com/OH/Washington-Township/10971-Cold-Spring-Dr-45458/home/100855980,Dayton MLS,790746,N,Y,39.5856155,-84.1564151
MLS Listing,,Single Family Residential,8691 Dijon Ct,Washington Township,OH,45458,394900,3,2.0,Enclaves Sec 01,4546,13982,2007,79,87,42,Active,,,http://www.redfin.com/OH/Washington-Township/8691-Dijon-Ct-45458/home/100855476,Dayton MLS,790388,N,Y,39.613952,-84.1150009
MLS Listing,,Vacant Land,10616 Sheehan Rd,Washington Township,OH,45458,749000,,,Washington Township,,217800,,79,,,Active,,,http://www.redfin.com/OH/Washington-Township/10616-Sheehan-Rd-45458/home/100894361,Dayton MLS,790386,N,Y,39.5884631,-84.1823128
MLS Listing,,Single Family Residential,9376 Chaumont Ave,Clearcreek Twp.,OH,45458,519000,4,3.5,Clear Creek Twp.,4055,13504,2011,79,128,62,Active,,,http://www.redfin.com/OH/Dayton/9376-Chaumont-Ave-45458/home/100823591,Cincy MLS,1621220,N,Y,39.5745318,-84.1660379
MLS Listing,,Vacant Land,10165 Dayton Lebanon Pike,Dayton,OH,45458,490000,,,Dayton,,348480,,79,,,Active,,,http://www.redfin.com/OH/Unknown/10165-Dayton-Lebanon-Pike-45458/home/145579600,Dayton MLS,790334,N,Y,39.5959027,-84.1617326
MLS Listing,,Single Family Residential,611 Byrd Ct,Dayton,OH,45458,305000,3,3.0,Somerset,2203,11761,2005,80,138,160,Active,,,http://www.redfin.com/OH/Washington-Township/611-Byrd-Ct-45458/home/100853896,Dayton MLS,790248,N,Y,39.5960565,-84.174897
MLS Listing,,Single Family Residential,2631 Woodbluff Ln,Washington Township,OH,45458,299000,5,4.0,Washington Creek,3732,16117,1986,80,80,,Active,,,http://www.redfin.com/OH/Dayton/2631-Woodbluff-Ln-45458/home/97873831,Dayton MLS,790253,N,Y,39.607409,-84.1168156
MLS Listing,,Single Family Residential,1688 Cliffbrook Ct,Centerville,OH,45458,305000,4,3.0,Beechwood 01 Sec 01,2827,20037,1979,84,108,,Active,,,http://www.redfin.com/OH/Dayton/1688-Cliffbrook-Ct-45458/home/100896513,Dayton MLS,790008,N,Y,39.6125252,-84.1368969
MLS Listing,,Single Family Residential,1399 Quaker Way,Washington Twp,OH,45458,389900,5,3.5,Montgomery Co.,3114,20038,1993,85,125,6,Active,,,http://www.redfin.com/OH/Washington-Township/1399-Quaker-Way-45458/home/100897349,Cincy MLS,1620390,N,Y,39.6207813,-84.1407516
MLS Listing,,Single Family Residential,9514 Flatrock Dr #30,Washington Township,OH,45458,520730,2,3.0,Wynstone,,14623,2019,87,,38,Active,,,http://www.redfin.com/OH/Washington-Township/9514-Flatrock-Ct-45458/unit-30/home/164420906,Dayton MLS,789640,N,Y,39.60643,-84.125525
MLS Listing,,Single Family Residential,2011 Stonewater Dr,Washington Township,OH,45458,599900,5,5.0,Wynstone Sec 1,5286,23805,2017,88,113,38,Active,,,http://www.redfin.com/OH/Dayton/2011-Stonewater-Dr-45458/home/113025286,Dayton MLS,789576,N,Y,39.6036625,-84.1271106
MLS Listing,,Condo/Co-op,60 Old Pond Rd #18305,Springboro,OH,45066,174900,2,2.0,Springboro,,,,88,,146,Active,July-26-2019 12:00 AM,July-26-2019 11:59 PM,http://www.redfin.com/OH/Springboro/60-Old-Pond-Rd-45066/unit-18305/home/164366085,Cincy MLS,1619852,N,Y,39.585354,-84.208351
MLS Listing,,Single Family Residential,9355 Remington Hill Rd,Springboro,OH,45458,324900,4,4.0,Glenridge 4,3109,18678,2006,88,105,10,Active,,,http://www.redfin.com/OH/Centerville/9355-Remington-Hill-Rd-45458/home/100820428,Dayton MLS,789527,N,Y,39.5729419,-84.1865147
MLS Listing,,Single Family Residential,9486 Copperton Dr,Dayton,OH,45458,364900,4,3.0,Silvercreek Estates Sec 02,2818,15681,2000,90,129,100,Active,,,http://www.redfin.com/OH/Dayton/9486-Copperton-Dr-45458/home/100897509,Dayton MLS,789366,N,Y,39.6104133,-84.2030312
MLS Listing,,Single Family Residential,160 Summerford Pl,Washington Township,OH,45458,433900,5,5.0,Weatherstone Estates Sec 01,4563,15681,2006,92,95,17,Active,July-28-2019 02:00 PM,July-28-2019 04:00 PM,http://www.redfin.com/OH/Dayton/160-Summerford-Pl-45458/home/100854236,Dayton MLS,789118,N,Y,39.5840819,-84.1643278
MLS Listing,,Single Family Residential,10153 Chedworth Dr,Washington Township,OH,45458,429900,3,3.0,Somerset,,,2019,94,,160,Active,,,http://www.redfin.com/OH/Unknown/10153-Chedworth-Dr-45458/home/147968970,Dayton MLS,788980,N,Y,39.5961728,-84.1728524
MLS Listing,,Condo/Co-op,9833 Southern Belle,Washington Township,OH,45458,329900,3,2.0,Paragon Place,,,2019,101,,33,Active,,,http://www.redfin.com/OH/Washington-Township/9833-Southern-Belle-Ct-45458/home/162319122,Dayton MLS,788560,N,Y,39.5997268,-84.1818917
MLS Listing,,Condo/Co-op,9487 Tahoe Dr,Dayton,OH,45458,215000,3,4.0,Twin Lks West Condo Ph 04,2581,2469,2007,102,83,195,Active,July-28-2019 02:00 PM,July-28-2019 04:00 PM,http://www.redfin.com/OH/Dayton/9487-Tahoe-Dr-45458/home/82736721,Dayton MLS,788413,N,Y,39.614419,-84.205541
MLS Listing,,Single Family Residential,1545 Lemans Blvd,Clearcreek Twp.,OH,45458,449900,4,3.5,Clear Creek Twp.,,14375,2015,105,,62,Active,,,http://www.redfin.com/OH/Centerville/1545-Lemans-Blvd-45458/home/89035754,Cincy MLS,1617571,N,Y,39.5774357,-84.1713986
MLS Listing,,Single Family Residential,457 Lighthouse Trc,Washington Twp,OH,45458,594000,7,4.5,Montgomery Co.,6048,33541,1990,105,98,,Active,,,http://www.redfin.com/OH/Dayton/457-Lighthouse-Trl-45458/home/75989787,Cincy MLS,1617581,N,Y,39.6071813,-84.1757828
MLS Listing,,Condo/Co-op,1187 Bourdeaux Way,Clearcreek Township,OH,45458,339900,3,2.0,Soraya Frmlfscom4,2308,7413,2019,112,147,180,Active,July-27-2019 12:00 PM,July-27-2019 06:00 PM,http://www.redfin.com/OH/Dayton/1187-Bourdeaux-Way-45458/home/161108171,Dayton MLS,787627,N,Y,39.5778076,-84.1684637
MLS Listing,,Condo/Co-op,1183 Bourdeaux Way,Clearcreek Township,OH,45458,349900,3,2.0,Soraya Frmlfscom4,2440,10815,2019,112,143,180,Active,July-27-2019 12:00 PM,July-27-2019 06:00 PM,http://www.redfin.com/OH/Dayton/1183-Bourdeaux-Way-45458/home/161108170,Dayton MLS,787621,N,Y,39.5778076,-84.1684637
MLS Listing,,Single Family Residential,906 El Kenna Ct,Washington Township,OH,45458,469900,4,3.0,David Holzen Rep 01,4074,20037,2007,112,115,,Active,,,http://www.redfin.com/OH/Dayton/906-El-Kenna-Ct-45458/home/100933100,Dayton MLS,787527,N,Y,39.5928504,-84.1896042
MLS Listing,,Vacant Land,0 Grassy Creek Way,Washington Township,OH,45458,59900,,,Hidden Creek,,20995,,113,,,Active,,,http://www.redfin.com/OH/Washington-Township/Grassy-Creek-Way-45458/home/100897600,Dayton MLS,787502,N,Y,39.599743,-84.160305
MLS Listing,,Single Family Residential,531 Hampstead Ct,Clearcreek Township,OH,45458,329900,4,3.0,Glenridge 2,2544,14570,2004,115,130,,Active,,,http://www.redfin.com/OH/Centerville/531-Hampstead-Ct-45458/home/100817311,Dayton MLS,787393,N,Y,39.5708683,-84.1836723
MLS Listing,,Single Family Residential,1409 Bourdeaux Way,Centerville,OH,45458,339900,3,2.0,Soraya Frmlfscom1,1850,8463,2015,119,184,,Active,July-28-2019 01:00 PM,July-28-2019 03:00 PM,http://www.redfin.com/OH/Centerville/1409-Bourdeaux-Way-45458/home/75870716,Dayton MLS,787151,N,Y,39.5767457,-84.165255
MLS Listing,,Single Family Residential,1107 Charter Pl,Centerville,OH,45458,397500,4,3.0,Yankee Trace,3538,17424,1996,126,112,67,Active,,,http://www.redfin.com/OH/Dayton/1107-Charter-Pl-45458/home/75898641,Dayton MLS,786675,N,Y,39.6075897,-84.1915814
MLS Listing,,Single Family Residential,1045 Wedgestone Ct,Centerville,OH,45458,364999,3,2.0,Yankee Trace Sec 18,2313,11761,2002,127,158,140,Active,July-28-2019 03:00 PM,July-28-2019 05:00 PM,http://www.redfin.com/OH/Centerville/1045-Wedgestone-Ct-45458/home/78925692,Dayton MLS,786453,N,Y,39.6024945,-84.1902221
MLS Listing,,Single Family Residential,10031 Yearling Run,Dayton,OH,45458,439900,4,4.0,Yearling Farms Sec 1,3737,16788,2013,129,118,,Active,,,http://www.redfin.com/OH/Dayton/10031-Yearling-Run-S-45458/home/100856373,Dayton MLS,786362,N,Y,39.597307,-84.1389583
MLS Listing,,Single Family Residential,10518 Reese Ct,Washington Twp,OH,45458,569900,4,4.0,Montgomery Co.,4686,22216,2016,137,122,92,Active,July-28-2019 12:00 AM,July-28-2019 11:59 PM,http://www.redfin.com/OH/Dayton/10518-Reese-Ct-45458/home/76005471,Cincy MLS,1612749,N,Y,39.5839591,-84.1871738
MLS Listing,,Single Family Residential,1650 Summit Creek Dr,Clearcreek Township,OH,45458,319900,4,4.0,Villages Of Winding Creek,3074,6677,2016,140,104,73,Active,,,http://www.redfin.com/OH/Centerville/1650-Summit-Creek-Dr-45458/home/113350473,Dayton MLS,785697,N,Y,39.5766232,-84.1596092
MLS Listing,,Single Family Residential,2039 Stonewater Dr,Washington Twp,OH,45458,574600,5,4.5,Montgomery Co.,,15246,2018,142,,75,Active,,,http://www.redfin.com/OH/Washington-Township/2039-Stonewater-Dr-45458/unit-4/home/143920016,Cincy MLS,1612861,N,Y,39.60643,-84.125525
MLS Listing,,Vacant Land,Lot 15 El Kenna Ct,Dayton,OH,45458,85000,,,David Holzen Rep 01,,20037,,142,,,Active,,,http://www.redfin.com/OH/Washington-Township/Lot-15-El-Kenna-Ct-45458/home/160603980,Dayton MLS,785470,N,Y,39.593092,-84.1878721
MLS Listing,,Single Family Residential,10775 Falls Creek Ln,Washington Township,OH,45458,799495,7,5.0,Woods,5336,29185,2001,143,150,17,Active,July-28-2019 03:00 AM,July-28-2019 05:00 PM,http://www.redfin.com/OH/Washington-Township/10775-Falls-Creek-Ln-45458/home/100933077,Dayton MLS,785421,N,Y,39.5855053,-84.1927553
MLS Listing,,Single Family Residential,10995 Cold Spring Dr,Centerville,OH,45458,950000,5,5.0,Creekside/villages/winding Crk,6100,27137,2015,148,156,73,Active,,,http://www.redfin.com/OH/Dayton/10995-Cold-Spring-Dr-45458/home/82878300,Dayton MLS,785027,N,Y,39.584256,-84.15658
MLS Listing,,Single Family Residential,10590 Falls Creek Ln,Dayton,OH,45458,447500,4,5.0,Waterbury Woods Sec 05,4112,23958,2000,149,109,46,Active,,,http://www.redfin.com/OH/Dayton/10590-Falls-Creek-Ln-45458/home/82767543,Dayton MLS,784933,N,Y,39.5910024,-84.1981097
MLS Listing,,Single Family Residential,9783 Greenside Ct,Dayton,OH,45458,347000,3,2.0,Yankee Trace Sec 06a,2014,22215,1997,155,172,134,Active,,,http://www.redfin.com/OH/Washington-Township/9783-Greenside-Ct-45458/home/75990850,Dayton MLS,784635,N,Y,39.6043961,-84.1985009
MLS Listing,,Single Family Residential,1902 Spindletop #224,Washington Township,OH,45458,412000,4,3.0,The Trails Of Saddle Creek,,12000,2019,157,,75,Active,,,http://www.redfin.com/OH/Washington-Township/1902-Spindletop-Ln-45458/unit-224/home/160496212,Dayton MLS,784416,N,Y,39.601873,-84.128572
MLS Listing,,Single Family Residential,1893 Spindletop #221,Washington Township,OH,45458,395000,3,2.0,The Trails Of Saddlecreek,,12000,2019,168,,38,Active,,,http://www.redfin.com/OH/Washington-Township/1893-Spindletop-Ln-45458/unit-221/home/160422531,Dayton MLS,783781,N,Y,39.6033767,-84.1265102
MLS Listing,,Vacant Land,740 Abercorn Ct,Dayton,OH,45458,99900,,,Estate/paragon Sec 03,,23086,,171,,,Active,,,http://www.redfin.com/OH/Dayton/740-Abercorn-Ct-45458/home/78992848,Dayton MLS,783600,N,Y,39.604118,-84.183382
MLS Listing,,Single Family Residential,10713 Ashel Ct,Washington Twp,OH,45458,849900,7,4.5,Montgomery Co.,,23522,,179,,91,Active,,,http://www.redfin.com/OH/Dayton/10713-Ashel-Ct-45458/home/100854703,Cincy MLS,1608823,N,Y,39.5843833,-84.1896248
MLS Listing,,Single Family Residential,9730 Tibbals Ct,Centerville,OH,45458,399000,5,5.0,Yankee Trace,3859,14374,1999,233,103,67,Active,,,http://www.redfin.com/OH/Dayton/9730-Tibbals-Ct-45458/home/100900295,Dayton MLS,780801,N,Y,39.6051191,-84.2004984
MLS Listing,,Vacant Land,0 Miller Farm Ln,Washington Twp,OH,45458,95000,,,Montgomery Co.,,,,252,,,Active,,,http://www.redfin.com/OH/Washington-Township/Miller-Farm-Ln-45458/home/148132547,Cincy MLS,1603290,N,Y,39.626797,-84.169972
MLS Listing,,Single Family Residential,2018 Buglers Sound,Washington Twp,OH,45458,271600,3,2.0,Montgomery Co.,,12001,,260,,75,Active,,,http://www.redfin.com/OH/Dayton/2018-Buglers-Sound-45458/home/100856121,Cincy MLS,1602481,N,Y,39.6025031,-84.1290864
MLS Listing,,Single Family Residential,1054 W Spring Valley Pike,Centerville,OH,45458,824900,4,5.0,Mrs,6371,185434,2002,280,129,,Active,,,http://www.redfin.com/OH/Dayton/1054-W-Spring-Valley-Pike-45458/home/75898064,Dayton MLS,778103,N,Y,39.6118577,-84.1900958
MLS Listing,,Vacant Land,11199 Ashbury Meadows Dr,Dayton,OH,45458,61900,,,Ashbury Mdws Sec 3,,27442,,308,,,Active,,,http://www.redfin.com/OH/Centerville/11199-Ashbury-Meadows-Dr-45458/home/75943925,Dayton MLS,774739,N,Y,39.584812,-84.196298
MLS Listing,,Single Family Residential,1994 Stonewater Dr #46,Washington Township,OH,45458,544500,4,4.0,Wynstone,,13516,,309,,38,Active,,,http://www.redfin.com/OH/Unknown/1994-Stonewater-Dr-45458/unit-46/home/147133826,Dayton MLS,775051,N,Y,39.6049539,-84.1265415
MLS Listing,,Single Family Residential,1731 Country Corner Ln,Washington Township,OH,45458,419900,3,3.0,Country Cnr Estates,,16117,2018,309,,150,Active,,,http://www.redfin.com/OH/Dayton/1731-Country-Corner-Ln-45458/home/75907156,Dayton MLS,775005,N,Y,39.6144546,-84.1376802
MLS Listing,,Single Family Residential,10863 Mariam Ln,Washington Twp,OH,45458,1175000,5,5.0,Montgomery Co.,6576,,2013,323,179,92,Active,,,http://www.redfin.com/OH/Dayton/10863-Mariam-Ln-45458/home/82907999,Cincy MLS,1595166,N,Y,39.585033,-84.191086
MLS Listing,,Vacant Land,0 Dayton Lebanon Pike,Washington Township,OH,45458,149900,,,Centerville Terrace,,20473,,364,,,Active,,,http://www.redfin.com/OH/Washington-Township/Dayton-Lebanon-Pike-45458/home/75927663,Dayton MLS,770568,N,Y,39.599627,-84.162057
MLS Listing,,Vacant Land,0 Austin Rd,Dayton,OH,45458,475000,,,Mrs,,178988,,378,,,Active,,,http://www.redfin.com/OH/Dayton/0-Austin-RD-45458/home/167118386,Dayton MLS,769396,N,Y,39.5978465,-84.1540659
MLS Listing,,Vacant Land,0 Miller Farm Ln,Washington Township,OH,45458,174900,,,Miller Farm Center Condo,,46757,,389,,,Active,,,http://www.redfin.com/OH/Washington-Township/Miller-Farm-Ln-45458/home/75999845,Dayton MLS,768455,N,Y,39.623773,-84.170669
MLS Listing,,Vacant Land,812 Hidden Branches Dr,Centerville,OH,45459,79000,,,Centerville,,9539,,442,,,Active,,,http://www.redfin.com/OH/Centerville/812-Hidden-Branches-Dr-Unknown/home/145601166,Dayton MLS,762257,N,Y,39.6283928,-84.1593818
MLS Listing,,Vacant Land,1228 Champion Way,Washington Township,OH,45458,69900,,,Bridle Creek Ranch,,15276,,477,,,Active,,,http://www.redfin.com/OH/Unknown/1228-Champions-Xing-45458/home/145277873,Dayton MLS,759956,N,Y,39.6058215,-84.1292253
MLS Listing,,Vacant Land,00 Miller Farm Ln,Washington Township,OH,45458,99900,,,Miller Farm,,58170,,960,,,Active,,,http://www.redfin.com/OH/Dayton/8130-Miller-Farm-Ln-45458/home/164420296,Dayton MLS,726155,N,Y,39.6261541,-84.1692571
MLS Listing,,Vacant Land,980 Wild Horse Dr,Dayton,OH,45458,71900,,,Spring Vlgs Winding Crk,,25003,,994,,,Active,,,http://www.redfin.com/OH/Dayton/980-Wild-Horse-Dr-45458/home/100856901,Dayton MLS,724309,N,Y,39.5839927,-84.1552379
MLS Listing,,Vacant Land,984 Wild Horse Dr,Dayton,OH,45458,73900,,,Spring Vlgs Winding Crk,,24959,,994,,,Active,,,http://www.redfin.com/OH/Dayton/984-Wild-Horse-Dr-45458/home/100856889,Dayton MLS,724306,N,Y,39.5839853,-84.1547954
MLS Listing,,Vacant Land,988 Wild Horse Dr,Dayton,OH,45458,73900,,,Spring Vlgs Winding Crk,,24959,,995,,,Active,,,http://www.redfin.com/OH/Dayton/988-Wild-Horse-Dr-45458/home/100856891,Dayton MLS,724262,N,Y,39.5839791,-84.1543554
MLS Listing,,Vacant Land,992 Wild Horse Dr,Dayton,OH,45458,73900,,,Spring Vlgs Winding Crk,,24959,,1008,,,Active,,,http://www.redfin.com/OH/Dayton/992-Wild-Horse-Dr-45458/home/100856893,Dayton MLS,723422,N,Y,39.5839748,-84.1539146
MLS Listing,,Vacant Land,996 Wild Horse Dr,Dayton,OH,45458,71900,,,Spring Vlgs Winding Crk,,24175,,1009,,,Active,,,http://www.redfin.com/OH/Dayton/996-Wild-Horse-Dr-45458/home/100856895,Dayton MLS,723364,N,Y,39.5839731,-84.1534792
MLS Listing,,Vacant Land,10950 Shallow Creek Ct,Dayton,OH,45458,95900,,,Spring Vlgs Winding Crk,,20691,,1012,,,Active,,,http://www.redfin.com/OH/Dayton/10950-Shallow-Creek-Ct-45458/home/100857010,Dayton MLS,723121,N,Y,39.5865842,-84.1534038
MLS Listing,,Vacant Land,9507 Dayton Lebanon Pike,Centerville,OH,45458,450000,,,"H.r, Office Park",,43560,,1295,,,Active,,,http://www.redfin.com/OH/Washington-Township/9507-Dayton-Lebanon-Pike-45458/home/82903850,Dayton MLS,701220,N,Y,39.6055972,-84.1614684
MLS Listing,,Vacant Land,9 Sprinters Xing,Centerville,OH,45458,89900,,,Montgomery Co.,,,,1362,,,Active,,,http://www.redfin.com/OH/SUGARCRK-TWP/9-Sprinters-XING-45458/home/165783875,Cincy MLS,1472040,N,Y,39.5978465,-84.1540659
MLS Listing,,Vacant Land,1283 Timberhawk Trl,Centerville,OH,45458,99000,,,Quail Run,,87120,,1514,,,Active,,,http://www.redfin.com/OH/Dayton/1283-Timberhawk-Trl-45458/home/82901270,Dayton MLS,585514,N,Y,39.606223,-84.142235
New Construction Home,,Single Family Residential,1885 Spindletop Ln,Centerville,OH,45458,415112,4,2.5,The Trails Of Saddle Creek,2610,,2019,76,159,,Active,,,http://www.redfin.com/OH/Washington-Township/1885-Spindletop-Ln-45458/home/166249093,NewHomeSource.com,1631587,N,Y,39.601873,-84.128572
New Construction Home,,Single Family Residential,1981 Spindletop Ln,Centerville,OH,45458,435000,4,2.5,The Trails Of Saddle Creek,2653,,2019,88,164,,Active,,,http://www.redfin.com/OH/Washington-Township/1981-Spindletop-Ln-45458/home/164363436,NewHomeSource.com,1624595,N,Y,39.601873,-84.128572
New Construction Home,,Single Family Residential,10066 Cobble Brook Dr,Centerville,OH,45458,379000,4,3.5,Creekside at Winding Creek,3010,,2019,93,126,,Active,,,http://www.redfin.com/OH/Washington-Township/10066-Cobble-Brook-Dr-45458/home/163544964,NewHomeSource.com,1622866,N,Y,39.577611,-84.16081
New Construction Home,,Single Family Residential,1764 Wandering Way Stream Way,Springboro,OH,45066,319000,3,2.0,Turning Leaf at Winding Creek,2450,,2019,125,130,,Active,,,http://www.redfin.com/OH/Springboro/1764-Wandering-Way-Stream-WAY-45066/home/160744688,NewHomeSource.com,1605995,N,Y,39.576601,-84.154842
New Construction Home,,Single Family Residential,2047 Stonewater Dr,Centerville,OH,45458,713868,4,3.5,Wynstone,3908,,2017,617,183,,Active,,,http://www.redfin.com/OH/Centerville/2047-Stonewater-Dr-45458/home/113025254,NewHomeSource.com,1363534,N,Y,39.6064301,-84.125525
New Construction Plan,,Single Family Residential,Hudson,Springboro,OH,45066,336000,3,2.5,Turning Leaf at Winding Creek,2718,,,,124,,Active,,,http://www.redfin.com/OH/Springboro/Turning-Leaf-at-Winding-Creek/Hudson/home/160403466,NewHomeSource.com,Plan-91536739,N,Y,39.576601,-84.154842
New Construction Plan,,Single Family Residential,Roanoke,Springboro,OH,45066,358000,3,2.5,The Oaks at Winding Creek,2756,,,,130,,Active,,,http://www.redfin.com/OH/Springboro/The-Oaks-at-Winding-Creek/Roanoke/home/167130675,NewHomeSource.com,Plan-91660845,N,Y,39.576601,-84.154842
New Construction Plan,,Single Family Residential,Normandy,Springboro,OH,45066,410000,4,3.5,The Oaks at Winding Creek,3765,,,,109,,Active,,,http://www.redfin.com/OH/Springboro/The-Oaks-at-Winding-Creek/Normandy/home/160289356,NewHomeSource.com,Plan-91361944,N,Y,39.57664,-84.154835
New Construction Plan,,Single Family Residential,Cheswicke,Washington Township,OH,45458,346995,3,2.0,The Trails Of Saddle Creek,2188,,,,159,,Active,,,http://www.redfin.com/OH/Washington-Township/The-Trails-Of-Saddle-Creek/Cheswicke/home/148528689,NewHomeSource.com,Plan-91536802,N,Y,39.601873,-84.128572
New Construction Plan,,Single Family Residential,Hudson,Centerville,OH,45458,342000,4,2.0,Creekside at Winding Creek,2718,,,,126,,Active,,,http://www.redfin.com/OH/Dayton/Creekside-at-Winding-Creek/Hudson/home/167177298,NewHomeSource.com,Plan-91554021,N,Y,39.576111,-84.1559072
New Construction Plan,,Single Family Residential,Springmanor,Springboro,OH,45066,353000,3,2.0,The Oaks at Winding Creek,2090,,,,169,,Active,,,http://www.redfin.com/OH/Springboro/The-Oaks-at-Winding-Creek/Springmanor/home/160289361,NewHomeSource.com,Plan-91361943,N,Y,39.57664,-84.154835
New Construction Plan,,Single Family Residential,Lehigh,Centerville,OH,45458,352000,4,2.0,Creekside at Winding Creek,3010,,,,117,,Active,,,http://www.redfin.com/OH/Dayton/Creekside-at-Winding-Creek/Lehigh/home/160289366,NewHomeSource.com,Plan-91554020,N,Y,39.577611,-84.16081
New Construction Plan,,Single Family Residential,Tolbert,Centerville,OH,45458,426495,3,2.5,Wynstone,2832,,,,151,,Active,,,http://www.redfin.com/OH/Centerville/Wynstone/Tolbert/home/113684829,NewHomeSource.com,Plan-91422766,N,Y,39.60643,-84.125525
New Construction Plan,,Single Family Residential,Thorton,Centerville,OH,45458,412495,2,2.0,Wynstone,2457,,,,168,,Active,,,http://www.redfin.com/OH/Centerville/Wynstone/Thorton/home/113616526,NewHomeSource.com,Plan-91422765,N,Y,39.60643,-84.125525
New Construction Plan,,Single Family Residential,Powell,Springboro,OH,45066,332000,4,2.5,The Oaks at Winding Creek,2454,,,,135,,Active,,,http://www.redfin.com/OH/Springboro/The-Oaks-at-Winding-Creek/Powell/home/167061350,NewHomeSource.com,Plan-91654605,N,Y,39.57664,-84.154835
New Construction Plan,,Single Family Residential,Serenity,Centerville,OH,45458,404495,2,2.5,Wynstone,2335,,,,173,,Active,,,http://www.redfin.com/OH/Centerville/Wynstone/Serenity/home/113550811,NewHomeSource.com,Plan-91422764,N,Y,39.60643,-84.125525
New Construction Plan,,Single Family Residential,Nicholas,Centerville,OH,45458,421495,4,2.5,Wynstone,3317,,,,127,,Active,,,http://www.redfin.com/OH/Centerville/Wynstone/Nicholas/home/113550812,NewHomeSource.com,Plan-91422763,N,Y,39.60643,-84.125525
New Construction Plan,,Single Family Residential,Monroe,Centerville,OH,45458,469495,4,2.5,Wynstone,3845,,,,122,,Active,,,http://www.redfin.com/OH/Centerville/Wynstone/Monroe/home/113684832,NewHomeSource.com,Plan-91422762,N,Y,39.60643,-84.125525
New Construction Plan,,Single Family Residential,Ellsworth,Centerville,OH,45458,538495,4,4.5,Wynstone,4585,,,,117,,Active,,,http://www.redfin.com/OH/Centerville/Wynstone/Ellsworth/home/145237555,NewHomeSource.com,Plan-91488212,N,Y,39.6064301,-84.125525
New Construction Plan,,Single Family Residential,Keating,Centerville,OH,45458,456495,4,2.5,Wynstone,3535,,,,129,,Active,,,http://www.redfin.com/OH/Centerville/Wynstone/Keating/home/113684831,NewHomeSource.com,Plan-91422761,N,Y,39.60643,-84.125525
New Construction Plan,,Single Family Residential,Normandy,Centerville,OH,45458,392000,4,3.5,Creekside at Winding Creek,3765,,,,104,,Active,,,http://www.redfin.com/OH/Dayton/Creekside-at-Winding-Creek/Normandy/home/160289369,NewHomeSource.com,Plan-91395531,N,Y,39.577611,-84.16081
New Construction Plan,,Single Family Residential,Cheswicke,Centerville,OH,45458,372495,3,2.0,Wynstone,2188,,,,170,,Active,,,http://www.redfin.com/OH/Centerville/Wynstone/Cheswicke/home/113656742,NewHomeSource.com,Plan-91422760,N,Y,39.60643,-84.125525
New Construction Plan,,Single Family Residential,Bethany,Centerville,OH,45458,467495,4,3.5,Wynstone,3335,,,,140,,Active,,,http://www.redfin.com/OH/Centerville/Wynstone/Bethany/home/113668687,NewHomeSource.com,Plan-91422759,N,Y,39.60643,-84.125525
New Construction Plan,,Single Family Residential,Thorton,Washington Township,OH,45458,386995,2,2.0,The Trails Of Saddle Creek,2457,,,,158,,Active,,,http://www.redfin.com/OH/Washington-Township/The-Trails-Of-Saddle-Creek/Thorton/home/163832040,NewHomeSource.com,Plan-91640879,N,Y,39.601873,-84.128572
New Construction Plan,,Single Family Residential,Aviano,Springboro,OH,45066,288000,3,2.0,Turning Leaf at Winding Creek,1566,,,,184,,Active,,,http://www.redfin.com/OH/Springboro/Turning-Leaf-at-Winding-Creek/Aviano/home/160403468,NewHomeSource.com,Plan-91253639,N,Y,39.576601,-84.154842
New Construction Plan,,Single Family Residential,Ainsley II,Centerville,OH,45458,436495,4,2.5,Wynstone,3175,,,,137,,Active,,,http://www.redfin.com/OH/Centerville/Wynstone/Ainsley-II/home/113516343,NewHomeSource.com,Plan-91422758,N,Y,39.60643,-84.125525
New Construction Plan,,Single Family Residential,Palladio Ranch,Springboro,OH,45066,339000,2,2.0,Turning Leaf at Winding Creek,1947,,,,174,,Active,,,http://www.redfin.com/OH/Springboro/Turning-Leaf-at-Winding-Creek/Palladio-Ranch/home/160403465,NewHomeSource.com,Plan-91563524,N,Y,39.576601,-84.154842
New Construction Plan,,Single Family Residential,Powell,Centerville,OH,45458,322000,4,2.5,Creekside at Winding Creek,2637,,,,122,,Active,,,http://www.redfin.com/OH/Dayton/Creekside-at-Winding-Creek/Powell/home/166800673,NewHomeSource.com,Plan-81648289,N,Y,39.576111,-84.1559072
New Construction Plan,,Single Family Residential,Sorrel Classic,Washington Township,OH,45458,342995,4,2.5,The Trails Of Saddle Creek,2610,,,,131,,Active,,,http://www.redfin.com/OH/Washington-Township/The-Trails-Of-Saddle-Creek/Sorrel-Classic/home/148528690,NewHomeSource.com,Plan-81520817,N,Y,39.601873,-84.128572
New Construction Plan,,Single Family Residential,Morrison,Washington Township,OH,45458,348995,4,2.5,The Trails Of Saddle Creek,2894,,,,121,,Active,,,http://www.redfin.com/OH/Washington-Township/The-Trails-Of-Saddle-Creek/Morrison/home/148528691,NewHomeSource.com,Plan-81520815,N,Y,39.601873,-84.128572
New Construction Plan,,Single Family Residential,Fairview,Washington Township,OH,45458,378995,4,2.5,The Trails Of Saddle Creek,3322,,,,114,,Active,,,http://www.redfin.com/OH/Washington-Township/The-Trails-Of-Saddle-Creek/Fairview/home/148528692,NewHomeSource.com,Plan-81520814,N,Y,39.601873,-84.128572
New Construction Plan,,Single Family Residential,Nicholas,Washington Township,OH,45458,384995,4,2.5,The Trails Of Saddle Creek,3317,,,,116,,Active,,,http://www.redfin.com/OH/Washington-Township/The-Trails-Of-Saddle-Creek/Nicholas/home/160499679,NewHomeSource.com,Plan-81597253,N,Y,39.601873,-84.128572
New Construction Plan,,Single Family Residential,Dillon,Washington Township,OH,45458,357995,4,3.5,The Trails Of Saddle Creek,2913,,,,123,,Active,,,http://www.redfin.com/OH/Washington-Township/The-Trails-Of-Saddle-Creek/Dillon/home/148528693,NewHomeSource.com,Plan-81520812,N,Y,39.601873,-84.128572
New Construction Plan,,Single Family Residential,Monroe,Washington Township,OH,45458,429995,4,2.5,The Trails Of Saddle Creek,3845,,,,112,,Active,,,http://www.redfin.com/OH/Washington-Township/The-Trails-Of-Saddle-Creek/Monroe/home/160499680,NewHomeSource.com,Plan-81597252,N,Y,39.601873,-84.128572
New Construction Plan,,Single Family Residential,Ainsley II,Washington Township,OH,45458,401995,4,3.5,The Trails Of Saddle Creek,3175,,,,127,,Active,,,http://www.redfin.com/OH/Washington-Township/The-Trails-Of-Saddle-Creek/Ainsley-II/home/160499681,NewHomeSource.com,Plan-81597251,N,Y,39.601873,-84.128572
New Construction Plan,,Single Family Residential,Columbia,Springboro,OH,45066,320000,4,2.5,Turning Leaf at Winding Creek,2423,,,,132,,Active,,,http://www.redfin.com/OH/Springboro/Turning-Leaf-at-Winding-Creek/Columbia/home/160289358,NewHomeSource.com,Plan-81498551,N,Y,39.576601,-84.154842
New Construction Plan,,Single Family Residential,Cooke,Washington Township,OH,45458,345995,4,2.5,The Trails Of Saddle Creek,2624,,,,132,,Active,,,http://www.redfin.com/OH/Washington-Township/The-Trails-Of-Saddle-Creek/Cooke/home/148528694,NewHomeSource.com,Plan-81520810,N,Y,39.601873,-84.128572
New Construction Plan,,Single Family Residential,Ballenger,Dayton,OH,45458,281000,4,2.5,The Legacy at Winding Creek,2114,,,,133,,Active,,,http://www.redfin.com/OH/Dayton/The-Legacy-at-Winding-Creek/Ballenger/home/160289364,NewHomeSource.com,Plan-81498550,N,Y,39.577611,-84.16081
New Construction Plan,,Single Family Residential,Clayton,Washington Township,OH,45458,324995,3,2.0,The Trails Of Saddle Creek,1927,,,,169,,Active,,,http://www.redfin.com/OH/Washington-Township/The-Trails-Of-Saddle-Creek/Clayton/home/148528695,NewHomeSource.com,Plan-81520809,N,Y,39.601873,-84.128572
New Construction Plan,,Single Family Residential,Allegheny,Dayton,OH,45458,268000,4,2.5,The Legacy at Winding Creek,1823,,,,147,,Active,,,http://www.redfin.com/OH/Dayton/The-Legacy-at-Winding-Creek/Allegheny/home/160289365,NewHomeSource.com,Plan-81498549,N,Y,39.577611,-84.16081
New Construction Plan,,Single Family Residential,Barrett,Washington Township,OH,45458,384995,4,2.5,The Trails Of Saddle Creek,3076,,,,125,,Active,,,http://www.redfin.com/OH/Washington-Township/The-Trails-Of-Saddle-Creek/Barrett/home/148528696,NewHomeSource.com,Plan-81520808,N,Y,39.601873,-84.128572
New Construction Plan,,Single Family Residential,Adams,Washington Township,OH,45458,370995,3,3.5,The Trails Of Saddle Creek,2454,,,,151,,Active,,,http://www.redfin.com/OH/Washington-Township/The-Trails-Of-Saddle-Creek/Adams/home/148528697,NewHomeSource.com,Plan-81520807,N,Y,39.601873,-84.128572
New Construction Plan,,Single Family Residential,Pisa Torre,Dayton,OH,45458,262000,3,2.0,The Legacy at Winding Creek,1407,,,,186,,Active,,,http://www.redfin.com/OH/Dayton/The-Legacy-at-Winding-Creek/Pisa-Torre/home/161103047,NewHomeSource.com,Plan-81221065,N,Y,39.576111,-84.1559072
New Construction Plan,,Single Family Residential,Serenity,Washington Township,OH,45458,381995,2,2.5,The Trails Of Saddle Creek,2335,,,,164,,Active,,,http://www.redfin.com/OH/Washington-Township/The-Trails-Of-Saddle-Creek/Serenity/home/160499678,NewHomeSource.com,Plan-81607877,N,Y,39.601873,-84.128572
New Construction Plan,,Single Family Residential,Lehigh,Springboro,OH,45066,349000,4,2.0,Turning Leaf at Winding Creek,3010,,,,116,,Active,,,http://www.redfin.com/OH/Springboro/Turning-Leaf-at-Winding-Creek/Lehigh/home/160289357,NewHomeSource.com,Plan-81597236,N,Y,39.576601,-84.154842
New Construction Plan,,Single Family Residential,Sienna,Dayton,OH,45458,244000,3,2.5,The Legacy at Winding Creek,1680,,,,145,,Active,,,http://www.redfin.com/OH/Dayton/The-Legacy-at-Winding-Creek/Sienna/home/160289363,NewHomeSource.com,Plan-81196269,N,Y,39.577611,-84.16081
New Construction Plan,,Single Family Residential,Columbia,Dayton,OH,45458,306000,4,2.5,The Legacy at Winding Creek,2423,,,,126,,Active,,,http://www.redfin.com/OH/Dayton/The-Legacy-at-Winding-Creek/Columbia/home/160289362,NewHomeSource.com,Plan-81547451,N,Y,39.577611,-84.16081
